SALE TYPE,SOLD DATE,PROPERTY TYPE,ADDRESS,CITY,STATE OR PROVINCE,ZIP OR POSTAL CODE,PRICE,BEDS,BATHS,LOCATION,SQUARE FEET,LOT SIZE,YEAR BUILT,DAYS ON MARKET,$/SQUARE FEET,HOA/MONTH,STATUS,NEXT OPEN HOUSE START TIME,NEXT OPEN HOUSE END TIME,URL (SEE http://www.redfin.com/buy-a-home/comparative-market-analysis FOR INFO ON PRICING),SOURCE,MLS#,FAVORITE,INTERESTED,LATITUDE,LONGITUDE
MLS Listing,,Condo/Co-op,1400 N State Pkwy Unit 10A,Chicago,IL,60610,354000,2,2.0,CHI - Near North Side,1250,,1960,37,283,1072,Active,,,http://www.redfin.com/IL/Chicago/1400-N-State-Pkwy-60610/unit-10A/home/14113993,MRED,11210616,N,Y,41.9079255,-87.6290073
MLS Listing,,Condo/Co-op,1110 N Lake Shore Dr Unit 4N,Chicago,IL,60611,595000,3,2.5,CHI - Near North Side,2122,,1969,84,280,2540,Active,,,http://www.redfin.com/IL/Chicago/1110-N-Lake-Shore-Dr-60611/unit-4N/home/14122746,MRED,11166242,N,Y,41.902836,-87.625043
MLS Listing,,Condo/Co-op,1540 N Lake Shore Dr Unit 7N,Chicago,IL,60610,1950000,4,4.0,CHI - Near North Side,4300,,1926,1,453,4285,Active,,,http://www.redfin.com/IL/Chicago/1540-N-Lake-Shore-Dr-60610/unit-7N/home/13007278,MRED,11247331,N,Y,41.9106233,-87.6265826
MLS Listing,,Condo/Co-op,1310 N Ritchie Ct Unit 25B,Chicago,IL,60610,575000,2,2.0,CHI - Near North Side,1350,,1969,1,426,1234,Active,,,http://www.redfin.com/IL/Chicago/1310-N-Ritchie-Ct-60610/unit-25B/home/14124036,MRED,11247247,N,Y,41.9064866,-87.62685
MLS Listing,,Condo/Co-op,1221 N Dearborn St Unit 604S,Chicago,IL,60610,399000,2,2.5,CHI - Near North Side,1665,,1974,1,240,1209,Active,October-17-2021 12:00 PM,October-17-2021 01:30 PM,http://www.redfin.com/IL/Chicago/1221-N-Dearborn-St-60610/unit-604S/home/26811872,MRED,11247157,N,Y,41.9046835,-87.6296264
MLS Listing,,Condo/Co-op,1313 N Ritchie Ct #2707,Chicago,IL,60610,259000,1,1.0,CHI - Near North Side,650,,1978,1,398,465,Active,,,http://www.redfin.com/IL/Chicago/1313-N-Ritchie-Ct-60610/unit-2707/home/14124480,MRED,11246998,N,Y,41.9061626,-87.6261578
MLS Listing,,Condo/Co-op,1448 N Lake Shore Dr Unit 1B,Chicago,IL,60610,325000,1,1.0,CHI - Near North Side,,,1927,1,,1596,Active,,,http://www.redfin.com/IL/Chicago/1448-N-Lake-Shore-Dr-60610/unit-1B/home/40319815,MRED,11246874,N,Y,41.9092734,-87.626852
MLS Listing,,Condo/Co-op,1540 N State Pkwy Unit 14D,Chicago,IL,60610,339900,2,2.0,CHI - Near North Side,1150,,1970,1,296,925,Active,,,http://www.redfin.com/IL/Chicago/1540-N-State-Pkwy-60610/unit-14D/home/14115387,MRED,11246749,N,Y,41.910666,-87.629243
MLS Listing,,Condo/Co-op,1120 N Lake Shore Dr Unit 3C,Chicago,IL,60611,515000,2,2.0,CHI - Near North Side,1600,,1924,1,322,2342,Active,,,http://www.redfin.com/IL/Chicago/1120-N-Lake-Shore-Dr-60611/unit-3C/home/176730051,MRED,11246656,N,Y,41.9030623,-87.6250979
MLS Listing,,Condo/Co-op,40 W Schiller St Unit 1B,Chicago,IL,60610,399900,2,2.0,CHI - Near North Side,1215,,1923,1,329,2021,Active,,,http://www.redfin.com/IL/Chicago/40-W-Schiller-St-60610/unit-1B/home/144668768,MRED,11246663,N,Y,41.9079708,-87.630368
MLS Listing,,Condo/Co-op,1120 N Lake Shore Dr Unit 8B,Chicago,IL,60611,650000,3,3.0,CHI - Near North Side,2200,,1924,1,295,2435,Active,,,http://www.redfin.com/IL/Chicago/1120-N-Lake-Shore-Dr-60611/unit-8B/home/176728776,MRED,11136331,N,Y,41.9030623,-87.6250979
MLS Listing,,Condo/Co-op,990 N Lake Shore Dr Unit 12E,Chicago,IL,60611,749000,3,2.5,CHI - Near North Side,2000,,1972,1,375,1581,Active,,,http://www.redfin.com/IL/Chicago/990-N-Lake-Shore-Dr-60611/unit-12E/home/14119805,MRED,11246100,N,Y,41.9003001,-87.6201438
MLS Listing,,Condo/Co-op,1400 N State Pkwy Unit 16A,Chicago,IL,60610,325000,2,2.0,CHI - Near North Side,1200,,1960,2,271,989,Active,,,http://www.redfin.com/IL/Chicago/1400-N-State-Pkwy-60610/unit-16A/home/14113641,MRED,11239841,N,Y,41.9079255,-87.6290073
MLS Listing,,Condo/Co-op,1110 N Lake Shore Dr Unit 21N,Chicago,IL,60611,935000,3,2.5,CHI - Near North Side,2649,,1970,2,353,2930,Active,,,http://www.redfin.com/IL/Chicago/1110-N-Lake-Shore-Dr-60611/unit-21N/home/14124211,MRED,11245565,N,Y,41.902836,-87.625043
MLS Listing,,Single Family Residential,1246 N Astor St,Chicago,IL,60610,5999000,5,7.0,CHI - Near North Side,9240,2870,1886,2,649,,Active,,,http://www.redfin.com/IL/Chicago/1246-N-Astor-St-60610/home/175661281,MRED,11245377,N,Y,41.9054332,-87.6274901
MLS Listing,,Condo/Co-op,1313 N Ritchie Ct Unit 2504-2505,Chicago,IL,60610,749000,3,3.0,CHI - Near North Side,2330,,1973,2,321,1739,Active,,,http://www.redfin.com/IL/Chicago/1313-N-Ritchie-Ct-60610/unit-2504-2505/home/176718777,MRED,11245143,N,Y,41.9061626,-87.6261578
MLS Listing,,Condo/Co-op,1555 N Dearborn Pkwy Unit 12D,Chicago,IL,60610,159900,0,1.0,CHI - Near North Side,450,,1967,2,355,551,Active,,,http://www.redfin.com/IL/Chicago/1555-N-Dearborn-Pkwy-60610/unit-12D/home/14115364,MRED,11245127,N,Y,41.9110351,-87.6297062
MLS Listing,,Condo/Co-op,1430 N Lake Shore Dr #5,Chicago,IL,60610,2995000,4,4.5,CHI - Near North Side,5000,,1928,2,599,4322,Active,,,http://www.redfin.com/IL/Chicago/1430-N-Lake-Shore-Dr-60610/unit-5/home/21819066,MRED,11244966,N,Y,41.9087249,-87.6264668
MLS Listing,,Condo/Co-op,1418 N Lake Shore Dr #23,Chicago,IL,60610,899000,2,2.5,CHI - Near North Side,3150,,1984,3,285,3932,Active,,,http://www.redfin.com/IL/Chicago/1418-N-Lake-Shore-Dr-60610/unit-23/home/14124817,MRED,11244680,N,Y,41.9083359,-87.6263896
MLS Listing,,Condo/Co-op,1150 N Lake Shore Dr Unit 2D,Chicago,IL,60611,249900,1,1.0,CHI - Near North Side,900,,1957,3,278,825,Active,,,http://www.redfin.com/IL/Chicago/1150-N-Lake-Shore-Dr-60611/unit-2D/home/14123395,MRED,11244440,N,Y,41.903695,-87.625372
MLS Listing,,Condo/Co-op,78 E Elm St #2,Chicago,IL,60611,540000,2,2.0,CHI - Near North Side,,,,3,,323,Active,,,http://www.redfin.com/IL/Chicago/78-E-Elm-St-60611/unit-2/home/175119474,MRED,11244239,N,Y,41.903492,-87.625758
MLS Listing,,Condo/Co-op,1150 N Lake Shore Dr Unit 21E,Chicago,IL,60611,265000,1,1.0,CHI - Near North Side,900,,1958,3,294,970,Active,,,http://www.redfin.com/IL/Chicago/1150-N-Lake-Shore-Dr-60611/unit-21E/home/14123382,MRED,11244011,N,Y,41.903695,-87.625372
MLS Listing,,Condo/Co-op,1450 N Astor St Unit 16D,Chicago,IL,60610,425000,2,2.0,CHI - Near North Side,1250,,1971,3,340,746,Active,,,http://www.redfin.com/IL/Chicago/1450-N-Astor-St-60610/unit-16D/home/14126401,MRED,11243921,N,Y,41.9092986,-87.6280835
MLS Listing,,Condo/Co-op,1450 N Astor St Unit 7B,Chicago,IL,60610,379900,2,2.0,CHI - Near North Side,,,1972,4,,703,Active,,,http://www.redfin.com/IL/Chicago/1450-N-Astor-St-60610/unit-7B/home/14125835,MRED,11243739,N,Y,41.9092986,-87.6280835
MLS Listing,,Townhouse,55 W Goethe St #1227,Chicago,IL,60610,1219000,3,2.5,Beekman Place,2400,,1985,4,508,1241,Active,,,http://www.redfin.com/IL/Chicago/55-W-Goethe-St-60610/unit-1227/home/14111576,MRED,11243692,N,Y,41.904767,-87.630878
MLS Listing,,Condo/Co-op,1440 N Lake Shore Dr Unit 20B,Chicago,IL,60610,129999,0,1.0,CHI - Near North Side,,,1965,4,,502,Active,,,http://www.redfin.com/IL/Chicago/1440-N-Lake-Shore-Dr-60610/unit-20B/home/14125371,MRED,11243493,N,Y,41.9089622,-87.6266981
MLS Listing,,Condo/Co-op,229 E Lake Shore Dr Unit 4E,Chicago,IL,60611,2650000,4,3.5,CHI - Near North Side,3500,,1920,4,757,4665,Active,,,http://www.redfin.com/IL/Chicago/229-E-Lake-Shore-Dr-60611/unit-4E/home/176708300,MRED,11243429,N,Y,41.9006181,-87.6205294
MLS Listing,,Condo/Co-op,1439 N Dearborn St #2,Chicago,IL,60610,1525000,3,2.5,CHI - Near North Side,,,1889,7,,450,Active,,,http://www.redfin.com/IL/Chicago/1439-N-Dearborn-St-60610/unit-2/home/14113952,MRED,11242141,N,Y,41.9089219,-87.629754
MLS Listing,,Condo/Co-op,1340 N Dearborn St Unit 14DE,Chicago,IL,60610,435000,2,2.0,CHI - Near North Side,1600,,1969,7,272,774,Active,October-16-2021 01:00 PM,October-16-2021 02:30 PM,http://www.redfin.com/IL/Chicago/1340-N-Dearborn-St-60610/unit-14DE/home/143007224,MRED,11211615,N,Y,41.906948,-87.6304758
MLS Listing,,Condo/Co-op,1445 N State Pkwy #1902,Chicago,IL,60610,334000,3,2.0,CHI - Near North Side,1670,,1958,7,200,1955,Active,,,http://www.redfin.com/IL/Chicago/1445-N-State-Pkwy-60610/unit-1902/home/14126125,MRED,11241460,N,Y,41.9091114,-87.6282751
MLS Listing,,Condo/Co-op,4 E Elm St Unit 14N,Chicago,IL,60611,3335000,4,3.5,CHI - Near North Side,3135,,2016,8,1064,2958,Active,,,http://www.redfin.com/IL/Chicago/4-E-Elm-St-60610/unit-14N/home/104293296,MRED,11241133,N,Y,41.9033068,-87.6284213
MLS Listing,,Condo/Co-op,71 E Division St #1001,Chicago,IL,60610,378750,2,2.0,CHI - Near North Side,1229,,1973,8,308,974,Active,,,http://www.redfin.com/IL/Chicago/71-E-Division-St-60610/unit-1001/home/14122763,MRED,11241007,N,Y,41.9037639,-87.62631
MLS Listing,,Condo/Co-op,1430 N Astor St Unit 13C,Chicago,IL,60610,540000,3,2.5,CHI - Near North Side,1600,,1972,8,338,1872,Active,,,http://www.redfin.com/IL/Chicago/1430-N-Astor-St-60610/unit-13C/home/14127049,MRED,11240956,N,Y,41.9085806,-87.6279494
MLS Listing,,Condo/Co-op,1255 N State Pkwy Unit 7F,Chicago,IL,60610,136000,0,1.0,CHI - Near North Side,550,,1924,8,247,672,Active,,,http://www.redfin.com/IL/Chicago/1255-N-State-Pkwy-60610/unit-7F/home/14124900,MRED,11240733,N,Y,41.905509,-87.6283954
MLS Listing,,Single Family Residential,1360 N State Pkwy,Chicago,IL,60610,2499000,6,3.5,CHI - Near North Side,4561,2461,1878,9,548,,Active,October-16-2021 11:00 AM,October-16-2021 01:00 PM,http://www.redfin.com/IL/Chicago/1360-N-State-Pkwy-60610/home/14113267,MRED,11239813,N,Y,41.907581,-87.629146
MLS Listing,,Condo/Co-op,1325 N State Pkwy Unit 9E,Chicago,IL,60610,490000,2,2.5,CHI - Near North Side,1650,,1963,9,297,1301,Active,October-16-2021 12:00 PM,October-16-2021 02:00 PM,http://www.redfin.com/IL/Chicago/1325-N-State-Pkwy-60610/unit-9E/home/14124658,MRED,11183536,N,Y,41.9064765,-87.6282768
MLS Listing,,Condo/Co-op,20 E Cedar St Unit 14C,Chicago,IL,60611,949000,4,3.0,CHI - Near North Side,3000,,1928,10,316,2257,Active,,,http://www.redfin.com/IL/Chicago/20-E-Cedar-St-60611/unit-14C/home/14123886,MRED,11238204,N,Y,41.902721,-87.6273372
MLS Listing,,Condo/Co-op,1445 N State Pkwy #808,Chicago,IL,60610,195000,1,1.0,CHI - Near North Side,800,,1966,11,244,853,Active,,,http://www.redfin.com/IL/Chicago/1445-N-State-Pkwy-60610/unit-808/home/14125921,MRED,11237722,N,Y,41.9091114,-87.6282751
MLS Listing,,Condo/Co-op,1300 N Astor St Unit 25AS,Chicago,IL,60610,600000,2,2.0,CHI - Near North Side,1550,,1962,11,387,2244,Active,,,http://www.redfin.com/IL/Chicago/1300-N-Astor-St-60610/unit-25AS/home/14125210,MRED,11237614,N,Y,41.9059804,-87.6276829
MLS Listing,,Condo/Co-op,1110 N Lake Shore Dr Unit 7S,Chicago,IL,60611,725000,3,3.0,CHI - Near North Side,2260,,1969,11,321,2487,Active,,,http://www.redfin.com/IL/Chicago/1110-N-Lake-Shore-Dr-60611/unit-7S/home/14123794,MRED,11237610,N,Y,41.902836,-87.625043
MLS Listing,,Condo/Co-op,179 E Lake Shore Dr #603,Chicago,IL,60611,799000,2,2.0,CHI - Near North Side,1435,,1927,11,557,3100,Active,,,http://www.redfin.com/IL/Chicago/179-E-Lake-Shore-Dr-60611/unit-603/home/146002856,MRED,11237447,N,Y,41.9006308,-87.6226581
MLS Listing,,Condo/Co-op,1242 N Lake Shore Dr #26,Chicago,IL,60610,999500,4,3.0,CHI - Near North Side,2500,,1929,11,400,3130,Active,,,http://www.redfin.com/IL/Chicago/1242-N-Lake-Shore-Dr-60610/unit-26/home/19003982,MRED,11236908,N,Y,41.9053146,-87.6254825
MLS Listing,,Condo/Co-op,1411 N State Pkwy Unit 1N,Chicago,IL,60610,1499500,4,2.5,CHI - Near North Side,2900,,1917,11,517,2289,Active,,,http://www.redfin.com/IL/Chicago/1411-N-State-Pkwy-60610/unit-1N/home/14125821,MRED,11236861,N,Y,41.9081266,-87.6283893
MLS Listing,,Condo/Co-op,1000 N Lake Shore Dr #1906,Chicago,IL,60611,179000,0,1.0,CHI - Near North Side,,,1953,13,,642,Active,,,http://www.redfin.com/IL/Chicago/1000-N-Lake-Shore-Dr-60611/unit-1906/home/14121233,MRED,11236112,N,Y,41.9012375,-87.6245855
MLS Listing,,Condo/Co-op,1000 N Lake Shore Plz Unit 21C,Chicago,IL,60611,860000,2,2.5,CHI - Near North Side,2200,,1964,14,391,2195,Active,,,http://www.redfin.com/IL/Chicago/1000-N-Lake-Shore-Dr-60611/unit-21C/home/172403353,MRED,11235594,N,Y,41.9012102,-87.6246539
MLS Listing,,Single Family Residential,1415 N State Pkwy,Chicago,IL,60610,2700000,5,3.5,CHI - Near North Side,6000,2600,1901,14,450,,Active,,,http://www.redfin.com/IL/Chicago/1415-N-State-Pkwy-60610/home/14126828,MRED,11235280,N,Y,41.9082431,-87.6284487
MLS Listing,,Single Family Residential,1252 N State Pkwy,Chicago,IL,60610,2700000,5,6.0,CHI - Near North Side,5000,2949,1872,14,540,,Active,,,http://www.redfin.com/IL/Chicago/1252-N-State-Pkwy-60610/home/14111622,MRED,11235096,N,Y,41.9054935,-87.6290877
MLS Listing,,Condo/Co-op,1255 N State Pkwy Unit 7AC,Chicago,IL,60610,575000,2,2.0,CHI - Near North Side,2000,,1924,15,288,2769,Active,,,http://www.redfin.com/IL/Chicago/1255-N-State-Pkwy-60610/unit-7-AC/home/14124156,MRED,11234424,N,Y,41.905509,-87.6283954
MLS Listing,,Condo/Co-op,21 W Goethe St Unit 8C,Chicago,IL,60610,145000,0,1.0,CHI - Near North Side,,,1970,15,,541,Active,,,http://www.redfin.com/IL/Chicago/21-W-Goethe-St-60610/unit-8C/home/14111187,MRED,11234014,N,Y,41.9054585,-87.6296264
MLS Listing,,Condo/Co-op,179 E Lake Shore Dr #302,Chicago,IL,60611,389000,1,1.0,Drake Tower,875,,1928,15,445,2570,Active,,,http://www.redfin.com/IL/Chicago/179-E-Lake-Shore-Dr-60611/unit-302/home/13040529,MRED,11233949,N,Y,41.9006308,-87.6226581
MLS Listing,,Condo/Co-op,33 E Cedar St Unit 5B,Chicago,IL,60611,199500,1,1.0,CHI - Near North Side,,,1958,15,,678,Active,,,http://www.redfin.com/IL/Chicago/33-E-Cedar-St-60611/unit-5B/home/14121636,MRED,11233477,N,Y,41.9022307,-87.6271603
MLS Listing,,Condo/Co-op,4 E Elm St Unit 17N,Chicago,IL,60611,3350000,3,3.5,CHI - Near North Side,3100,,2016,16,1081,3042,Active,,,http://www.redfin.com/IL/Chicago/4-E-Elm-St-60610/unit-17N/home/171314668,MRED,11233009,N,Y,41.9033068,-87.6284213
MLS Listing,,Condo/Co-op,1255 N State Pkwy Unit 4AC,Chicago,IL,60610,750000,2,2.0,Churchill,2000,,1924,16,375,2769,Active,,,http://www.redfin.com/IL/Chicago/1255-N-State-Pkwy-60610/unit-4AC/home/144940255,MRED,11222238,N,Y,41.905509,-87.6283954
MLS Listing,,Condo/Co-op,1550 N Lake Shore Dr Unit 3E,Chicago,IL,60610,179000,1,1.0,CHI - Near North Side,,,1960,17,,898,Active,,,http://www.redfin.com/IL/Chicago/1550-N-Lake-Shore-Dr-60610/unit-3E/home/12575827,MRED,11232035,N,Y,41.9108985,-87.6267754
MLS Listing,,Condo/Co-op,1209 N Astor St Unit 8S,Chicago,IL,60610,1099000,3,2.5,CHI - Near North Side,2500,,1926,17,440,4582,Active,,,http://www.redfin.com/IL/Chicago/1209-N-Astor-St-60610/unit-8S/home/14123914,MRED,11231835,N,Y,41.9044896,-87.6267156
MLS Listing,,Condo/Co-op,1440 N Lake Shore Dr Unit 22ABCD,Chicago,IL,60610,995000,3,4.5,CHI - Near North Side,4800,,1965,17,207,4145,Active,,,http://www.redfin.com/IL/Chicago/1440-N-Lake-Shore-Dr-60610/unit-22ABCD/home/21628174,MRED,11231824,N,Y,41.9089622,-87.6266981
MLS Listing,,Condo/Co-op,1440 N Lake Shore Dr Unit 24A,Chicago,IL,60610,520000,3,2.5,CHI - Near North Side,1720,,1967,17,302,1604,Active,,,http://www.redfin.com/IL/Chicago/1440-N-Lake-Shore-Dr-60610/unit-24A/home/14125172,MRED,11231701,N,Y,41.9089622,-87.6266981
MLS Listing,,Condo/Co-op,1410 N State Pkwy Unit 5B,Chicago,IL,60610,869000,3,2.5,CHI - Near North Side,2000,,1980,17,435,1806,Active,,,http://www.redfin.com/IL/Chicago/1410-N-State-Pkwy-60610/unit-5B/home/14113633,MRED,11231541,N,Y,41.9082392,-87.6292406
MLS Listing,,Condo/Co-op,999 N Lake Shore Dr Unit 3A,Chicago,IL,60611,1300000,4,4.0,CHI - Near North Side,4000,,1912,18,325,7913,Active,,,http://www.redfin.com/IL/Chicago/999-N-Lake-Shore-Dr-60611/unit-3A/home/39967695,MRED,11230927,N,Y,41.9006861,-87.6200667
MLS Listing,,Condo/Co-op,1000 N Lake Shore Dr #2003,Chicago,IL,60611,179900,1,1.0,CHI - Near North Side,,,1953,18,,732,Active,,,http://www.redfin.com/IL/Chicago/1000-N-Lake-Shore-Dr-60611/unit-2003/home/14121754,MRED,11230901,N,Y,41.9012375,-87.6245855
MLS Listing,,Condo/Co-op,1325 N Astor St #13,Chicago,IL,60610,6999000,6,6.0,CHI - Near North Side,7900,,1928,18,886,8260,Active,,,http://www.redfin.com/IL/Chicago/1325-N-Astor-St-60610/unit-13/home/14126494,MRED,11225663,N,Y,41.9065926,-87.6272934
MLS Listing,,Condo/Co-op,1000 N Lake Shore Dr #2105,Chicago,IL,60611,475000,3,3.0,CHI - Near North Side,1800,,,21,264,1528,Active,,,http://www.redfin.com/IL/Chicago/1000-N-Lake-Shore-Dr-60611/unit-2105/home/14122197,MRED,11229291,N,Y,41.9012375,-87.6245855
MLS Listing,,Condo/Co-op,1221 N Dearborn Pkwy Unit 801N,Chicago,IL,60610,218900,1,1.0,CHI - Near North Side,719,,1972,21,304,544,Active,,,http://www.redfin.com/IL/Chicago/1221-N-Dearborn-St-60610/unit-801N/home/14111537,MRED,11229200,N,Y,41.9046835,-87.6296264
MLS Listing,,Condo/Co-op,21 W Goethe St Unit 18B,Chicago,IL,60610,395000,2,2.0,CHI - Near North Side,,,1962,22,,1048,Active,,,http://www.redfin.com/IL/Chicago/21-W-Goethe-St-60610/unit-18B/home/14112307,MRED,11228114,N,Y,41.9054585,-87.6296264
MLS Listing,,Condo/Co-op,1500 N Astor St #7,Chicago,IL,60610,1795000,3,2.5,CHI - Near North Side,3700,,1891,22,485,4507,Active,,,http://www.redfin.com/IL/Chicago/1500-N-Astor-St-60610/unit-7/home/14126442,MRED,11227963,N,Y,41.9097651,-87.6280645
MLS Listing,,Condo/Co-op,1415 N Dearborn St Unit 11C,Chicago,IL,60610,299000,2,2.0,CHI - Near North Side,1300,,1973,23,230,1103,Active,,,http://www.redfin.com/IL/Chicago/1415-N-Dearborn-St-60610/unit-11C/home/14114621,MRED,11226307,N,Y,41.908244,-87.629737
MLS Listing,,Condo/Co-op,1 E Scott St #404,Chicago,IL,60610,245000,1,1.0,CHI - Near North Side,,,,23,,725,Active,,,http://www.redfin.com/IL/Chicago/1-E-Scott-St-60610/unit-404/home/14124406,MRED,11215377,N,Y,41.9044611,-87.6282767
MLS Listing,,Condo/Co-op,1120 N Lake Shore Dr Unit 12C,Chicago,IL,60611,550000,2,2.0,CHI - Near North Side,1600,,1924,24,344,1918,Active,,,http://www.redfin.com/IL/Chicago/1120-N-Lake-Shore-Dr-60611/unit-12C/home/108272329,MRED,11225580,N,Y,41.9030623,-87.6250979
MLS Listing,,Condo/Co-op,1440 N State Pkwy Unit 19D,Chicago,IL,60610,799000,3,2.5,CHI - Near North Side,2200,,1974,24,363,1740,Active,,,http://www.redfin.com/IL/Chicago/1440-N-State-Pkwy-60610/unit-19D/home/14115350,MRED,11225549,N,Y,41.9089778,-87.6293563
MLS Listing,,Condo/Co-op,1445 N State Pkwy #1001,Chicago,IL,60610,179000,1,1.0,CHI - Near North Side,760,,1958,24,236,837,Active,,,http://www.redfin.com/IL/Chicago/1445-N-State-Pkwy-60610/unit-1001/home/14126068,MRED,11225101,N,Y,41.9091114,-87.6282751
MLS Listing,,Condo/Co-op,1110 N Lake Shore Dr Unit 7N,Chicago,IL,60611,599000,3,2.5,CHI - Near North Side,2100,,1970,24,285,2841,Active,,,http://www.redfin.com/IL/Chicago/1110-N-Lake-Shore-Dr-60611/unit-7N/home/14123722,MRED,11225015,N,Y,41.902836,-87.625043
MLS Listing,,Condo/Co-op,1040 N Lake Shore Dr Unit 15A,Chicago,IL,60611,2100000,3,3.5,CHI - Near North Side,2800,,1967,24,750,2832,Active,,,http://www.redfin.com/IL/Chicago/1040-N-Lake-Shore-Dr-60611/unit-15A/home/14123690,MRED,11224952,N,Y,41.9020249,-87.6246949
MLS Listing,,Condo/Co-op,1 E Scott St #2011,Chicago,IL,60610,139000,0,1.0,CHI - Near North Side,500,,1968,25,278,554,Active,,,http://www.redfin.com/IL/Chicago/1-E-Scott-St-60610/unit-2011/home/14125572,MRED,11224160,N,Y,41.9044611,-87.6282767
MLS Listing,,Condo/Co-op,229 E Lake Shore Dr Unit 10E,Chicago,IL,60611,1199000,4,4.0,CHI - Near North Side,3500,,1919,25,343,5171,Active,,,http://www.redfin.com/IL/Chicago/229-E-Lake-Shore-Dr-60611/unit-10E/home/56258783,MRED,11224081,N,Y,41.9006181,-87.6205294
MLS Listing,,Condo/Co-op,1150 N Lake Shore Dr Unit 20A,Chicago,IL,60611,420000,2,2.0,CHI - Near North Side,,,1957,25,,1517,Active,,,http://www.redfin.com/IL/Chicago/1150-N-Lake-Shore-Dr-60611/unit-20A/home/14123243,MRED,11204551,N,Y,41.903695,-87.625372
MLS Listing,,Condo/Co-op,26 E Scott St,Chicago,IL,60610,1150000,2,2.5,CHI - Near North Side,,,1921,25,,1812,Active,,,http://www.redfin.com/IL/Chicago/26-E-Scott-St-60610/Ph/home/176084172,MRED,11223872,N,Y,41.9051265,-87.6276428
MLS Listing,,Condo/Co-op,1540 N State Pkwy Unit 2B,Chicago,IL,60610,279500,2,2.0,CHI - Near North Side,1150,,1970,25,243,702,Active,,,http://www.redfin.com/IL/Chicago/1540-N-State-Pkwy-60610/unit-2B/home/14114727,MRED,11223778,N,Y,41.910666,-87.629243
MLS Listing,,Condo/Co-op,179 E Lake Shore Dr #502,Chicago,IL,60611,850000,2,2.0,Drake Tower,1852,,1928,28,459,2476,Active,,,http://www.redfin.com/IL/Chicago/179-E-Lake-Shore-Dr-60611/unit-502/home/105686188,MRED,11222685,N,Y,41.9006308,-87.6226581
MLS Listing,,Condo/Co-op,1515 N Astor St Unit 11B,Chicago,IL,60610,385000,2,2.0,CHI - Near North Side,1500,,1972,28,257,1725,Active,,,http://www.redfin.com/IL/Chicago/1515-N-Astor-St-60610/unit-11B/home/14126770,MRED,11222175,N,Y,41.9101306,-87.6271608
MLS Listing,,Condo/Co-op,1500 N Lake Shore Dr,Chicago,IL,60610,16900000,6,6.5,CHI - Near North Side,8000,,1927,28,2113,8207,Active,,,http://www.redfin.com/IL/Chicago/1500-N-Lake-Shore-Dr-60610/home/14126150,MRED,11222082,N,Y,41.9098168,-87.6269297
MLS Listing,,Condo/Co-op,1150 N Lake Shore Dr Unit 4F,Chicago,IL,60611,239900,1,1.0,CHI - Near North Side,850,,1958,29,282,821,Active,,,http://www.redfin.com/IL/Chicago/1150-N-Lake-Shore-Dr-60611/unit-4F/home/14123184,MRED,11218296,N,Y,41.903695,-87.625372
MLS Listing,,Condo/Co-op,990 N Lake Shore Dr Unit 31D,Chicago,IL,60611,795000,2,2.0,CHI - Near North Side,1550,,1972,29,513,1383,Active,,,http://www.redfin.com/IL/Chicago/990-N-Lake-Shore-Dr-60611/unit-31D/home/14120927,MRED,11221031,N,Y,41.9003001,-87.6201438
MLS Listing,,Condo/Co-op,1440 N Lake Shore Dr Unit 19BD,Chicago,IL,60610,843750,3,3.0,CHI - Near North Side,1875,,1965,29,450,1833,Active,,,http://www.redfin.com/IL/Chicago/1440-N-Lake-Shore-Dr-60610/unit-19B-D/home/167680427,MRED,11220981,N,Y,41.9089622,-87.6266981
MLS Listing,,Condo/Co-op,1240 N Lake Shore Dr Unit 17A,Chicago,IL,60610,874900,3,2.5,CHI - Near North Side,2000,,1970,29,437,1850,Active,October-16-2021 02:00 PM,October-16-2021 04:00 PM,http://www.redfin.com/IL/Chicago/1240-N-Lake-Shore-Dr-60610/unit-17A/home/14125127,MRED,11220988,N,Y,41.905113,-87.62552
MLS Listing,,Condo/Co-op,1440 N Lake Shore Dr Unit 16D,Chicago,IL,60610,625000,2,2.0,CHI - Near North Side,1370,,1965,29,456,1347,Active,,,http://www.redfin.com/IL/Chicago/1440-N-Lake-Shore-Dr-60610/unit-16D/home/171343302,MRED,11220967,N,Y,41.9089622,-87.6266981
MLS Listing,,Multi-Family (2-4 Unit),55 E Cedar St,Chicago,IL,60611,2075000,7,5.0,CHI - Near North Side,,1742,1890,30,,,Active,October-17-2021 11:00 AM,October-17-2021 02:00 PM,http://www.redfin.com/IL/Chicago/55-E-Cedar-St-60611/home/12617115,MRED,11220067,N,Y,41.902191,-87.6261771
MLS Listing,,Condo/Co-op,229 E Lake Shore Dr E Unit 6W,Chicago,IL,60611,3750000,3,3.5,CHI - Near North Side,3500,,1919,30,1071,7687,Active,,,http://www.redfin.com/IL/Chicago/229-E-Lake-Shore-Dr-60611/unit-6W/home/45463860,MRED,11220019,N,Y,41.9006181,-87.6205294
MLS Listing,,Condo/Co-op,1250 N Dearborn St Unit 8A,Chicago,IL,60610,400000,2,2.0,CHI - Near North Side,1400,,1989,30,286,1109,Active,October-16-2021 11:30 AM,October-16-2021 01:30 PM,http://www.redfin.com/IL/Chicago/1250-N-Dearborn-St-60610/unit-8A/home/14112189,MRED,11219339,N,Y,41.9054191,-87.6304584
MLS Listing,,Multi-Family (2-4 Unit),46 E Cedar St,Chicago,IL,60611,2999900,6,6.5,CHI - Near North Side,,2178,1895,31,,,Active,,,http://www.redfin.com/IL/Chicago/46-E-Cedar-St-60611/home/14122489,MRED,11218874,N,Y,41.9026852,-87.6265439
MLS Listing,,Condo/Co-op,30 E Division St Unit 2B,Chicago,IL,60610,175000,1,1.0,CHI - Near North Side,,,1973,31,,480,Active,,,http://www.redfin.com/IL/Chicago/30-E-Division-St-60610/unit-2B/home/14124309,MRED,11218666,N,Y,41.9043262,-87.6273128
MLS Listing,,Condo/Co-op,1415 N Dearborn St Unit 12A,Chicago,IL,60610,315000,2,2.0,CHI - Near North Side,1300,,1977,31,242,1180,Active,,,http://www.redfin.com/IL/Chicago/1415-N-Dearborn-St-60610/unit-12A/home/14114539,MRED,11218667,N,Y,41.908244,-87.629737
MLS Listing,,Condo/Co-op,100 E Bellevue Pl Unit 8E,Chicago,IL,60611,655000,3,2.0,CHI - Near North Side,1800,,1971,31,364,1408,Active,,,http://www.redfin.com/IL/Chicago/100-E-Bellevue-Pl-60611/unit-8E/home/14121436,MRED,11218274,N,Y,41.9019284,-87.6256565
MLS Listing,,Condo/Co-op,4 E Elm St Unit 6N,Chicago,IL,60611,2600000,3,3.5,CHI - Near North Side,3100,,2016,32,839,3140,Active,,,http://www.redfin.com/IL/Chicago/4-E-Elm-St-60610/unit-6N/home/22889982,MRED,11217955,N,Y,41.9033068,-87.6284213
MLS Listing,,Condo/Co-op,1430 N Lake Shore Dr #20,Chicago,IL,60610,1950000,3,3.0,CHI - Near North Side,4500,,1928,32,433,8156,Active,,,http://www.redfin.com/IL/Chicago/1430-N-Lake-Shore-Dr-60610/unit-20/home/174332463,MRED,11217803,N,Y,41.9087249,-87.6264668
MLS Listing,,Condo/Co-op,1440 N Lake Shore Dr Unit 29B,Chicago,IL,60610,144900,0,1.0,CHI - Near North Side,550,,1965,32,263,530,Active,,,http://www.redfin.com/IL/Chicago/1440-N-Lake-Shore-Dr-60610/unit-29B/home/14124081,MRED,11217729,N,Y,41.9089622,-87.6266981
MLS Listing,,Condo/Co-op,232 E Walton Pl Unit 3E,Chicago,IL,60611,1175000,4,3.5,CHI - Near North Side,3800,,1928,32,309,2955,Active,,,http://www.redfin.com/IL/Chicago/232-E-Walton-Pl-60611/unit-3E/home/169104392,MRED,11217563,N,Y,41.9002369,-87.6206819
MLS Listing,,Condo/Co-op,50 W Schiller St Unit 2H,Chicago,IL,60610,425000,2,2.0,CHI - Near North Side,1500,,1922,32,283,1937,Active,,,http://www.redfin.com/IL/Chicago/50-W-Schiller-St-60610/unit-2H/home/21995644,MRED,11217422,N,Y,41.9079726,-87.63069
MLS Listing,,Condo/Co-op,1366 N Dearborn St Unit 10BC,Chicago,IL,60610,995000,3,3.5,CHI - Near North Side,2700,,1926,32,369,2657,Active,,,http://www.redfin.com/IL/Chicago/1366-N-Dearborn-Pkwy-60610/unit-10BC/home/145777068,MRED,11217408,N,Y,41.907719,-87.630382
MLS Listing,,Condo/Co-op,1350 N Astor St Unit 6D,Chicago,IL,60610,375000,2,1.0,CHI - Near North Side,,,1950,32,,1122,Active,,,http://www.redfin.com/IL/Chicago/1350-N-Astor-St-60610/unit-6D/home/18243643,MRED,11217387,N,Y,41.9074012,-87.6279701
MLS Listing,,Condo/Co-op,1 E Scott St #1604,Chicago,IL,60610,250000,1,1.0,CHI - Near North Side,,,1969,32,,757,Active,,,http://www.redfin.com/IL/Chicago/1-E-Scott-St-60610/unit-1604/home/14124556,MRED,11217372,N,Y,41.9044611,-87.6282767
MLS Listing,,Condo/Co-op,1110 N Lake Shore Dr Unit 17S,Chicago,IL,60611,899000,3,2.5,CHI - Near North Side,2140,,1970,32,420,2568,Active,,,http://www.redfin.com/IL/Chicago/1110-N-Lake-Shore-Dr-60611/unit-17S/home/14122975,MRED,11217331,N,Y,41.902836,-87.625043
MLS Listing,,Condo/Co-op,1235 N Astor St Unit 1S,Chicago,IL,60610,1195000,4,3.0,CHI - Near North Side,3500,,1920,32,341,2998,Active,,,http://www.redfin.com/IL/Chicago/1235-N-Astor-St-60610/unit-1S/home/107602166,MRED,11217090,N,Y,41.9051649,-87.626858
MLS Listing,,Multi-Family (2-4 Unit),33 E Division St,Chicago,IL,60610,2950000,6,6.0,CHI - Near North Side,,1742,1881,35,,,Active,,,http://www.redfin.com/IL/Chicago/33-E-Division-St-60610/home/14123960,MRED,11209076,N,Y,41.9037663,-87.6273704
MLS Listing,,Condo/Co-op,1325 N State Pkwy Unit 11E,Chicago,IL,60610,685000,2,2.0,Ambassador House,1650,,1966,35,415,1301,Active,,,http://www.redfin.com/IL/Chicago/1325-N-State-Pkwy-60610/unit-11E/home/14126197,MRED,11215455,N,Y,41.9064765,-87.6282768
MLS Listing,,Condo/Co-op,1000 N Lake Shore Dr #601,Chicago,IL,60611,259000,2,2.0,CHI - Near North Side,1250,,1953,35,207,1066,Active,October-16-2021 12:30 PM,October-16-2021 02:00 PM,http://www.redfin.com/IL/Chicago/1000-N-Lake-Shore-Dr-60611/unit-601/home/14121890,MRED,11215457,N,Y,41.9012375,-87.6245855
MLS Listing,,Condo/Co-op,1550 N Lake Shore Dr Unit 5AB,Chicago,IL,60610,1250000,3,3.0,CHI - Near North Side,3300,,1960,35,379,2885,Active,,,http://www.redfin.com/IL/Chicago/1550-N-Lake-Shore-Dr-60610/unit-5AB/home/14126755,MRED,11215171,N,Y,41.9108985,-87.6267754
MLS Listing,,Condo/Co-op,1212 N Lake Shore Dr Unit 20CS,Chicago,IL,60610,849000,2,2.0,CHI - Near North Side,1850,,1970,36,459,1362,Active,,,http://www.redfin.com/IL/Chicago/1212-N-Lake-Shore-Dr-60610/unit-20CS/home/172283000,MRED,11214360,N,Y,41.9045194,-87.6253855
MLS Listing,,Condo/Co-op,1000 N Lake Shore Plz Unit 41C,Chicago,IL,60611,689000,2,2.5,CHI - Near North Side,2000,,1964,36,345,2624,Active,,,http://www.redfin.com/IL/Chicago/1000-N-Lake-Shore-Dr-60611/unit-41C/home/14122806,MRED,11213837,N,Y,41.9012375,-87.6245855
MLS Listing,,Condo/Co-op,1241 N Dearborn St #2,Chicago,IL,60610,739000,3,2.0,CHI - Near North Side,,,1981,36,,500,Active,,,http://www.redfin.com/IL/Chicago/1241-N-Dearborn-St-60610/unit-2/home/14110899,MRED,11213800,N,Y,41.9051675,-87.6296071
MLS Listing,,Condo/Co-op,1250 N Dearborn St Unit 16E,Chicago,IL,60610,350000,2,2.0,CHI - Near North Side,1152,,1989,36,304,1029,Active,,,http://www.redfin.com/IL/Chicago/1250-N-Dearborn-St-60610/unit-16E/home/14111223,MRED,11213527,N,Y,41.9054191,-87.6304584
MLS Listing,,Condo/Co-op,40 E Cedar St Unit 12C,Chicago,IL,60611,349000,2,2.0,CHI - Near North Side,1200,,1970,36,291,989,Active,,,http://www.redfin.com/IL/Chicago/40-E-Cedar-St-60611/unit-12C/home/14122465,MRED,11213486,N,Y,41.9027706,-87.6269295
MLS Listing,,Condo/Co-op,999 N Lake Shore Dr Unit 5C,Chicago,IL,60611,1195000,2,2.5,CHI - Near North Side,2600,,1912,36,460,5409,Active,,,http://www.redfin.com/IL/Chicago/999-N-Lake-Shore-Dr-60611/unit-5C/home/172689687,MRED,11213342,N,Y,41.9006861,-87.6200667
MLS Listing,,Condo/Co-op,20 E Cedar St Unit 15C,Chicago,IL,60611,1299000,3,3.0,CHI - Near North Side,3000,,1925,37,433,2543,Active,,,http://www.redfin.com/IL/Chicago/20-E-Cedar-St-60611/unit-15C/home/14123885,MRED,11205571,N,Y,41.902721,-87.6273372
MLS Listing,,Condo/Co-op,1040 N Lake Shore Dr Unit 31D,Chicago,IL,60611,1650000,3,3.5,CHI - Near North Side,3500,,1964,37,471,3374,Active,,,http://www.redfin.com/IL/Chicago/1040-N-Lake-Shore-Dr-60611/unit-31D/home/14123007,MRED,11213040,N,Y,41.9020249,-87.6246949
MLS Listing,,Condo/Co-op,1555 N Dearborn Pkwy Unit 15DE,Chicago,IL,60610,469000,2,2.0,CHI - Near North Side,1400,,1967,37,335,1498,Active,,,http://www.redfin.com/IL/Chicago/1555-N-Dearborn-Pkwy-60610/unit-15DE/home/176341592,MRED,11212741,N,Y,41.9110351,-87.6297062
MLS Listing,,Condo/Co-op,1310 N Ritchie Ct Unit 8A,Chicago,IL,60610,325000,2,2.0,CHI - Near North Side,1350,,1969,37,241,1255,Active,,,http://www.redfin.com/IL/Chicago/1310-N-Ritchie-Ct-60610/unit-8A/home/14124473,MRED,11212603,N,Y,41.9064866,-87.62685
MLS Listing,,Condo/Co-op,990 N Lake Shore Dr Unit 30E,Chicago,IL,60611,799000,3,3.0,CHI - Near North Side,2000,,,37,400,1985,Active,,,http://www.redfin.com/IL/Chicago/990-N-Lake-Shore-Dr-60611/unit-30E/home/14119797,MRED,11212263,N,Y,41.9003001,-87.6201438
MLS Listing,,Condo/Co-op,1440 N Lake Shore Dr Unit 7B,Chicago,IL,60610,139000,0,1.0,CHI - Near North Side,550,,1965,37,253,501,Active,,,http://www.redfin.com/IL/Chicago/1440-N-Lake-Shore-Dr-60610/unit-7B/home/14126224,MRED,11205951,N,Y,41.9089622,-87.6266981
MLS Listing,,Condo/Co-op,1300 N Astor St Unit 15AB,Chicago,IL,60610,798500,3,3.0,CHI - Near North Side,2400,,1962,38,333,2889,Active,,,http://www.redfin.com/IL/Chicago/1300-N-Astor-St-60610/unit-15AB/home/144959526,MRED,11211888,N,Y,41.9059804,-87.6276829
MLS Listing,,Single Family Residential,67 E Cedar St,Chicago,IL,60611,2450000,4,4.5,CHI - Near North Side,,1454,1891,38,,,Active,,,http://www.redfin.com/IL/Chicago/67-E-Cedar-St-60611/home/14123575,MRED,11211870,N,Y,41.9021823,-87.6257529
MLS Listing,,Condo/Co-op,1366 N Dearborn St Unit 3A,Chicago,IL,60610,925000,3,2.5,CHI - Near North Side,1926,,1926,38,480,1995,Active,October-16-2021 11:00 AM,October-16-2021 12:30 PM,http://www.redfin.com/IL/Chicago/1366-N-Dearborn-St-60610/unit-3A/home/14113272,MRED,11211725,N,Y,41.9077072,-87.6306493
MLS Listing,,Condo/Co-op,1000 N Lake Shore Plz Unit 18C,Chicago,IL,60611,674000,2,2.5,CHI - Near North Side,2100,,1964,38,321,2098,Active,,,http://www.redfin.com/IL/Chicago/1000-N-Lake-Shore-Dr-60611/unit-18C/home/14121226,MRED,11211716,N,Y,41.9012375,-87.6245855
MLS Listing,,Condo/Co-op,1320 N State Pkwy Unit 12-13A,Chicago,IL,60610,1995000,3,3.5,CHI - Near North Side,4423,,1924,38,451,6881,Active,,,http://www.redfin.com/IL/Chicago/1320-N-State-Pkwy-60610/unit-12-13A/home/142099696,MRED,11211591,N,Y,41.9064531,-87.6290074
MLS Listing,,Condo/Co-op,1313 N Ritchie Ct #2304,Chicago,IL,60610,475000,2,2.0,CHI - Near North Side,1300,,1973,38,365,970,Active,,,http://www.redfin.com/IL/Chicago/1313-N-Ritchie-Ct-60610/unit-2304/home/14124926,MRED,11211362,N,Y,41.9061626,-87.6261578
MLS Listing,,Condo/Co-op,1120 N Lake Shore Dr Unit 8A,Chicago,IL,60611,625000,3,3.0,CHI - Near North Side,1800,,1924,38,347,2371,Active,,,http://www.redfin.com/IL/Chicago/1120-N-Lake-Shore-Dr-60611/unit-8A/home/146128094,MRED,11211360,N,Y,41.9030623,-87.6250979
MLS Listing,,Condo/Co-op,1415 N Dearborn St Unit 15C,Chicago,IL,60610,359000,2,2.0,CHI - Near North Side,1300,,1974,38,276,1103,Active,,,http://www.redfin.com/IL/Chicago/1415-N-Dearborn-St-60610/unit-15C/home/14114619,MRED,11199124,N,Y,41.908244,-87.629737
MLS Listing,,Single Family Residential,1322 N Dearborn St,Chicago,IL,60610,3995000,4,2.5,CHI - Near North Side,3783,3702,1880,38,1056,,Active,,,http://www.redfin.com/IL/Chicago/1322-N-Dearborn-St-60610/home/14112704,MRED,11211193,N,Y,41.9064613,-87.6303748
MLS Listing,,Condo/Co-op,1313 N Ritchie Ct #2404,Chicago,IL,60610,575000,2,2.0,CHI - Near North Side,1325,,1973,38,434,981,Active,,,http://www.redfin.com/IL/Chicago/1313-N-Ritchie-Ct-60610/unit-2404/home/14126239,MRED,11194883,N,Y,41.9061626,-87.6261578
MLS Listing,,Condo/Co-op,1200 N Lake Shore Dr #705,Chicago,IL,60610,425000,1,1.0,CHI - Near North Side,,,1914,38,,1288,Active,,,http://www.redfin.com/IL/Chicago/1200-N-Lake-Shore-Dr-60610/unit-705/home/14122939,MRED,11205102,N,Y,41.904179,-87.6253919
MLS Listing,,Condo/Co-op,1313 N Ritchie Ct #1301,Chicago,IL,60610,790000,3,3.0,CHI - Near North Side,1850,,1983,38,427,,Active,,,http://www.redfin.com/IL/Chicago/1313-N-Ritchie-Ct-60610/unit-1301/home/14124879,MRED,11184108,N,Y,41.9061626,-87.6261578
MLS Listing,,Single Family Residential,1236 N Astor St,Chicago,IL,60610,2000000,6,4.5,CHI - Near North Side,6300,3362,1887,38,317,,Active,,,http://www.redfin.com/IL/Chicago/1236-N-Astor-St-60610/home/14124644,MRED,11211088,N,Y,41.9050229,-87.6273151
MLS Listing,,Condo/Co-op,1340 N State Pkwy Unit 4S,Chicago,IL,60610,2495000,4,5.5,CHI - Near North Side,4100,,1903,38,609,2782,Active,,,http://www.redfin.com/IL/Chicago/1340-N-State-Pkwy-60610/unit-4S/home/14112439,MRED,11211083,N,Y,41.9071158,-87.6292002
MLS Listing,,Condo/Co-op,100 E Bellevue Pl Unit 9D,Chicago,IL,60611,779000,3,2.0,CHI - Near North Side,1800,,1978,38,433,1430,Active,,,http://www.redfin.com/IL/Chicago/100-E-Bellevue-Pl-60611/unit-9D/home/14120980,MRED,11210758,N,Y,41.9019284,-87.6256565
MLS Listing,,Condo/Co-op,1500 N Lake Shore Dr Unit 6C,Chicago,IL,60610,1995000,3,3.5,CHI - Near North Side,3600,,1928,38,554,3092,Active,,,http://www.redfin.com/IL/Chicago/1500-N-Lake-Shore-Dr-60610/unit-6C/home/145737241,MRED,11210761,N,Y,41.9098168,-87.6269297
MLS Listing,,Condo/Co-op,1240 N Lake Shore Dr Unit 5A,Chicago,IL,60610,695000,3,2.5,CHI - Near North Side,2000,,1970,38,348,1778,Active,December-9-2021 12:00 PM,December-9-2021 02:00 PM,http://www.redfin.com/IL/Chicago/1240-N-Lake-Shore-Dr-60610/unit-5A/home/14124641,MRED,11210659,N,Y,41.905113,-87.62552
MLS Listing,,Condo/Co-op,1212 N Lake Shore Dr Unit 8CN,Chicago,IL,60610,649950,2,2.0,CHI - Near North Side,1850,,1970,38,351,1307,Active,,,http://www.redfin.com/IL/Chicago/1212-N-Lake-Shore-Dr-60610/unit-8CN/home/14122908,MRED,11210650,N,Y,41.9045194,-87.6253855
MLS Listing,,Condo/Co-op,1255 N State Pkwy Unit 3F,Chicago,IL,60610,155000,0,1.0,CHI - Near North Side,550,,1924,38,282,671,Active,,,http://www.redfin.com/IL/Chicago/1255-N-State-Pkwy-60610/unit-3F/home/14125068,MRED,11210548,N,Y,41.905509,-87.6283954
MLS Listing,,Condo/Co-op,1000 N Lake Shore Dr #2206,Chicago,IL,60611,155000,0,1.0,CHI - Near North Side,,,1952,39,,640,Active,,,http://www.redfin.com/IL/Chicago/1000-N-Lake-Shore-Dr-60611/unit-2206/home/14122603,MRED,11210347,N,Y,41.9012375,-87.6245855
MLS Listing,,Condo/Co-op,1400 N State Pkwy Unit 14A,Chicago,IL,60610,400000,2,2.0,CHI - Near North Side,,,1960,42,,1122,Active,,,http://www.redfin.com/IL/Chicago/1400-N-State-Pkwy-60610/unit-14A/home/14113643,MRED,11202972,N,Y,41.9079255,-87.6290073
MLS Listing,,Condo/Co-op,1530 N Dearborn Pkwy Unit 8S,Chicago,IL,60610,599000,3,2.0,CHI - Near North Side,1825,,1974,43,328,1308,Active,,,http://www.redfin.com/IL/Chicago/1530-N-Dearborn-Pkwy-60610/unit-8S/home/172340864,MRED,11208059,N,Y,41.910389,-87.630606
MLS Listing,,Condo/Co-op,1209 N Astor St Unit 6S,Chicago,IL,60610,795000,3,3.0,CHI - Near North Side,2450,,1926,43,324,4242,Active,,,http://www.redfin.com/IL/Chicago/1209-N-Astor-St-60610/unit-6S/home/41393158,MRED,11206914,N,Y,41.9044896,-87.6267156
MLS Listing,,Condo/Co-op,21 W Goethe St Unit 6E,Chicago,IL,60610,123900,0,1.0,CHI - Near North Side,530,,1964,44,234,540,Active,,,http://www.redfin.com/IL/Chicago/21-W-Goethe-St-60610/unit-6E/home/14111190,MRED,11206469,N,Y,41.9054585,-87.6296264
MLS Listing,,Condo/Co-op,1400 N State Pkwy Unit 14B,Chicago,IL,60610,249900,1,1.0,CHI - Near North Side,850,,1967,44,294,825,Active,,,http://www.redfin.com/IL/Chicago/1400-N-State-Pkwy-60610/unit-14B/home/14114967,MRED,11206387,N,Y,41.9079255,-87.6290073
MLS Listing,,Condo/Co-op,1325 N State Pkwy Unit 17D,Chicago,IL,60610,265000,1,1.0,CHI - Near North Side,950,,1963,44,279,758,Active,,,http://www.redfin.com/IL/Chicago/1325-N-State-Pkwy-60610/unit-17D/home/14124486,MRED,11206374,N,Y,41.9064765,-87.6282768
MLS Listing,,Condo/Co-op,1240 N Dearborn Pkwy #1,Chicago,IL,60610,1199000,2,2.0,CHI - Near North Side,1800,,,44,666,300,Active,,,http://www.redfin.com/IL/Chicago/1240-N-Dearborn-St-60610/unit-1/home/14111984,MRED,11206069,N,Y,41.9051079,-87.6304938
MLS Listing,,Condo/Co-op,1212 N Lake Shore Dr Unit 13AS,Chicago,IL,60610,950000,3,2.5,CHI - Near North Side,2150,,1970,45,442,1588,Active,,,http://www.redfin.com/IL/Chicago/1212-N-Lake-Shore-Dr-60610/unit-13AS/home/14123280,MRED,11205037,N,Y,41.9045194,-87.6253855
MLS Listing,,Condo/Co-op,50 E Bellevue Pl #405,Chicago,IL,60611,479000,2,2.0,CHI - Near North Side,1450,,1979,46,330,1153,Active,,,http://www.redfin.com/IL/Chicago/50-E-Bellevue-Pl-60611/unit-405/home/12570734,MRED,11198544,N,Y,41.9019886,-87.6266976
MLS Listing,,Condo/Co-op,20 E Goethe St #401,Chicago,IL,60610,227900,2,1.0,CHI - Near North Side,741,,1899,46,308,472,Active,,,http://www.redfin.com/IL/Chicago/20-E-Goethe-St-60610/unit-401/home/14124477,MRED,11204624,N,Y,41.9062184,-87.6279528
MLS Listing,,Condo/Co-op,1339 N Dearborn St Unit 9B,Chicago,IL,60610,195000,1,1.0,CHI - Near North Side,750,,1974,46,260,390,Active,,,http://www.redfin.com/IL/Chicago/1339-N-Dearborn-St-60610/unit-9B/home/14112584,MRED,11204141,N,Y,41.9070858,-87.6296244
MLS Listing,,Condo/Co-op,30 E Division St Unit 7E,Chicago,IL,60610,330000,2,2.0,CHI - Near North Side,1400,,1973,49,236,752,Active,,,http://www.redfin.com/IL/Chicago/30-E-Division-St-60610/unit-7E/home/14123298,MRED,11202917,N,Y,41.9043262,-87.6273128
MLS Listing,,Single Family Residential,79 E Elm St,Chicago,IL,60611,3449500,5,7.0,CHI - Near North Side,6500,2199,1899,49,531,,Active,,,http://www.redfin.com/IL/Chicago/79-E-Elm-St-60611/home/14123051,MRED,11202797,N,Y,41.903037,-87.6257534
MLS Listing,,Condo/Co-op,1221 N Dearborn St Unit 609S,Chicago,IL,60610,279000,2,1.5,CHI - Near North Side,1200,,1972,49,233,675,Active,,,http://www.redfin.com/IL/Chicago/1221-N-Dearborn-St-60610/unit-609S/home/12714351,MRED,11202292,N,Y,41.9046835,-87.6296264
MLS Listing,,Condo/Co-op,1550 N Lake Shore Dr Unit 20D,Chicago,IL,60610,215000,1,1.0,CHI - Near North Side,800,,1960,50,269,845,Active,,,http://www.redfin.com/IL/Chicago/1550-N-Lake-Shore-Dr-60610/unit-20D/home/14126829,MRED,11200697,N,Y,41.9108985,-87.6267754
MLS Listing,,Condo/Co-op,33 E Cedar St Unit 17D,Chicago,IL,60611,224900,1,1.0,CHI - Near North Side,800,,1961,51,281,801,Active,,,http://www.redfin.com/IL/Chicago/33-E-Cedar-St-60611/unit-17D/home/14121406,MRED,11199579,N,Y,41.9022307,-87.6271603
MLS Listing,,Condo/Co-op,1516 N State Pkwy Unit 18C,Chicago,IL,60610,399900,2,2.0,CHI - Near North Side,1400,,1974,52,286,1157,Active,,,http://www.redfin.com/IL/Chicago/1516-N-State-Pkwy-60610/unit-18C/home/12574026,MRED,11198838,N,Y,41.9099393,-87.6291657
MLS Listing,,Condo/Co-op,30 E Elm St Unit 14B,Chicago,IL,60611,227500,1,1.0,CHI - Near North Side,,,1962,52,,612,Active,,,http://www.redfin.com/IL/Chicago/30-E-Elm-St-60611/unit-14B/home/14123229,MRED,11176931,N,Y,41.9034566,-87.627527
MLS Listing,,Condo/Co-op,1445 N State Pkwy #1404,Chicago,IL,60610,390000,3,3.0,CHI - Near North Side,2000,,1958,53,195,1947,Active,,,http://www.redfin.com/IL/Chicago/1445-N-State-Pkwy-60610/unit-1404/home/14125481,MRED,11198151,N,Y,41.9091114,-87.6282751
MLS Listing,,Condo/Co-op,1300 N State Pkwy #703,Chicago,IL,60610,2800000,3,3.5,The Ambassador,4075,,1924,53,687,3288,Active,,,http://www.redfin.com/IL/Chicago/1300-N-State-Pkwy-60610/unit-703/home/18948327,MRED,11197937,N,Y,41.9059886,-87.6290089
MLS Listing,,Condo/Co-op,1440 N Lake Shore Dr Unit 35HFN,Chicago,IL,60610,1625000,3,3.5,CHI - Near North Side,3175,,1965,53,512,3170,Active,,,http://www.redfin.com/IL/Chicago/1440-N-Lake-Shore-Dr-60610/unit-35HFN/home/146196329,MRED,11124927,N,Y,41.9089622,-87.6266981
MLS Listing,,Condo/Co-op,20 E Cedar St Unit 4D,Chicago,IL,60611,1399999,2,2.5,CHI - Near North Side,2560,,1929,53,547,1872,Active,October-26-2021 11:00 AM,October-26-2021 01:00 PM,http://www.redfin.com/IL/Chicago/20-E-Cedar-St-60611/unit-4D/home/14123206,MRED,11186601,N,Y,41.902721,-87.6273372
MLS Listing,,Condo/Co-op,1445 N State Pkwy #1602,Chicago,IL,60610,279000,2,2.0,CHI - Near North Side,,,,54,,1350,Active,,,http://www.redfin.com/IL/Chicago/1445-N-State-Pkwy-60610/unit-1602/home/14125811,MRED,11197323,N,Y,41.9091114,-87.6282751
MLS Listing,,Condo/Co-op,73 E Elm St Unit 4B,Chicago,IL,60611,570000,2,2.0,CHI - Near North Side,1555,,1930,57,367,1763,Active,,,http://www.redfin.com/IL/Chicago/73-E-Elm-St-60611/unit-4B/home/14122737,MRED,11195126,N,Y,41.9029066,-87.626004
MLS Listing,,Condo/Co-op,1366 N Dearborn Pkwy Unit 14BC,Chicago,IL,60610,1299000,3,3.5,CHI - Near North Side,2800,,1928,57,464,2739,Active,October-17-2021 11:00 AM,October-17-2021 12:00 PM,http://www.redfin.com/IL/Chicago/1366-N-Dearborn-Pkwy-60610/unit-14BC/home/108973063,MRED,11192595,N,Y,41.907719,-87.630382
MLS Listing,,Condo/Co-op,1301 N Dearborn Pkwy #1306,Chicago,IL,60610,1299000,3,2.5,The Whitney,2240,,1997,58,580,1631,Active,,,http://www.redfin.com/IL/Chicago/1301-N-Dearborn-Pkwy-60610/unit-1306/home/176142517,MRED,11186218,N,Y,41.9061527,-87.6299215
MLS Listing,,Condo/Co-op,1313 N Ritchie Ct #2108,Chicago,IL,60610,599000,2,2.0,CHI - Near North Side,1722,,1973,59,348,1125,Active,,,http://www.redfin.com/IL/Chicago/1313-N-Ritchie-Ct-60610/unit-2108/home/14124183,MRED,11192146,N,Y,41.9061626,-87.6261578
MLS Listing,,Condo/Co-op,1300 N State Pkwy #304,Chicago,IL,60610,1195000,2,2.5,The Ambassador,2058,,1918,60,581,1370,Active,,,http://www.redfin.com/IL/Chicago/1300-N-State-Pkwy-60610/unit-304/home/18947228,MRED,11191438,N,Y,41.9059886,-87.6290089
MLS Listing,,Condo/Co-op,1100 N Lake Shore Dr Unit 33A,Chicago,IL,60611,635000,3,2.5,CHI - Near North Side,2100,,1980,60,302,2016,Active,,,http://www.redfin.com/IL/Chicago/1100-N-Lake-Shore-Dr-60611/unit-33A/home/14123876,MRED,11190725,N,Y,41.902686,-87.625161
MLS Listing,,Condo/Co-op,1335 N Astor St Unit 1C,Chicago,IL,60610,374900,2,2.0,CHI - Near North Side,1700,,1951,64,221,1223,Active,,,http://www.redfin.com/IL/Chicago/1335-N-Astor-St-60610/unit-1C/home/113820501,MRED,11187835,N,Y,41.9069599,-87.6271575
MLS Listing,,Condo/Co-op,1110 N Lake Shore Dr Unit 28S,Chicago,IL,60611,1125000,2,2.5,CHI - Near North Side,2200,,1970,64,511,2011,Active,,,http://www.redfin.com/IL/Chicago/1110-N-Lake-Shore-Dr-60611/unit-28S/home/14122748,MRED,11187796,N,Y,41.902836,-87.625043
MLS Listing,,Condo/Co-op,1440 N Lake Shore Dr Unit 29D,Chicago,IL,60610,399900,2,2.0,CHI - Near North Side,1350,,1963,65,296,1348,Active,,,http://www.redfin.com/IL/Chicago/1440-N-Lake-Shore-Dr-60610/unit-29D/home/14126210,MRED,11186736,N,Y,41.9089622,-87.6266981
MLS Listing,,Condo/Co-op,1448 N Lake Shore Dr Unit 10A,Chicago,IL,60610,395000,2,2.0,CHI - Near North Side,1675,,1927,65,236,3259,Active,,,http://www.redfin.com/IL/Chicago/1448-N-Lake-Shore-Dr-60610/unit-10A/home/172574202,MRED,11186528,N,Y,41.9092734,-87.626852
MLS Listing,,Condo/Co-op,1300 N Astor St Unit 8B,Chicago,IL,60610,250000,1,1.0,CHI - Near North Side,750,,1963,65,333,878,Active,,,http://www.redfin.com/IL/Chicago/1300-N-Astor-St-60610/unit-8B/home/12680803,MRED,11186016,N,Y,41.9059804,-87.6276829
MLS Listing,,Condo/Co-op,1340 N Dearborn St Unit 12B,Chicago,IL,60610,289900,1,1.0,CHI - Near North Side,800,,1970,65,362,390,Active,,,http://www.redfin.com/IL/Chicago/1340-N-Dearborn-St-60610/unit-12B/home/14113371,MRED,11185946,N,Y,41.906948,-87.6304758
MLS Listing,,Condo/Co-op,30 E Elm St Unit 11D,Chicago,IL,60611,154900,1,1.0,CHI - Near North Side,750,,1962,66,207,530,Active,,,http://www.redfin.com/IL/Chicago/30-E-Elm-St-60611/unit-11D/home/14123446,MRED,11185595,N,Y,41.9034566,-87.627527
MLS Listing,,Condo/Co-op,1300 N Lake Shore Dr Unit 30D,Chicago,IL,60610,1100000,2,2.0,CHI - Near North Side,2200,,1963,66,500,2053,Active,,,http://www.redfin.com/IL/Chicago/1300-N-Lake-Shore-Dr-60610/unit-30D/home/14125134,MRED,11184094,N,Y,41.9062326,-87.625621
MLS Listing,,Condo/Co-op,1110 N Lake Shore Dr Unit 21S,Chicago,IL,60611,549999,2,2.0,CHI - Near North Side,1700,,1967,66,324,2244,Active,,,http://www.redfin.com/IL/Chicago/1110-N-Lake-Shore-Dr-60611/unit-21S/home/14122391,MRED,11184584,N,Y,41.902836,-87.625043
MLS Listing,,Condo/Co-op,1320 N State Pkwy Unit 9D,Chicago,IL,60610,799000,2,3.0,CHI - Near North Side,2750,,1927,67,291,5319,Active,,,http://www.redfin.com/IL/Chicago/1320-N-State-Pkwy-60610/unit-9D/home/176056708,MRED,11183497,N,Y,41.9064531,-87.6290074
MLS Listing,,Condo/Co-op,1255 N State Pkwy Unit 2D,Chicago,IL,60610,249000,1,1.0,CHI - Near North Side,,,1924,67,,1264,Active,,,http://www.redfin.com/IL/Chicago/1255-N-State-Pkwy-60610/unit-2D/home/14125341,MRED,11183484,N,Y,41.905509,-87.6283954
MLS Listing,,Condo/Co-op,189 E Lake Shore Dr Unit 1W,Chicago,IL,60611,4250000,3,4.5,CHI - Near North Side,5000,,1924,70,850,3456,Active,,,http://www.redfin.com/IL/Chicago/189-E-Lake-Shore-Dr-60611/unit-1W/home/14119901,MRED,11181682,N,Y,41.9006532,-87.6222263
MLS Listing,,Condo/Co-op,1000 N Lake Shore Plz Unit 46B,Chicago,IL,60611,1750000,4,4.5,CHI - Near North Side,3200,,1964,70,547,3076,Active,,,http://www.redfin.com/IL/Chicago/1000-N-Lake-Shore-Dr-60611/unit-46B/home/14121489,MRED,11181228,N,Y,41.9012375,-87.6245855
MLS Listing,,Condo/Co-op,73 E Elm St Unit 14D,Chicago,IL,60611,399000,1,1.0,CHI - Near North Side,1200,,1928,70,333,1364,Active,,,http://www.redfin.com/IL/Chicago/73-E-Elm-St-60611/unit-14D/home/14124046,MRED,11181183,N,Y,41.9029066,-87.626004
MLS Listing,,Condo/Co-op,219 E Lake Shore Dr Unit 8AB,Chicago,IL,60611,3195000,3,3.5,CHI - Near North Side,4500,,1922,71,710,4936,Active,,,http://www.redfin.com/IL/Chicago/219-E-Lake-Shore-Dr-60611/unit-8AB/home/175987612,MRED,11180438,N,Y,41.9007052,-87.6209922
MLS Listing,,Condo/Co-op,30 E Division St Unit 15A,Chicago,IL,60610,224900,1,1.0,CHI - Near North Side,1000,,1973,71,225,590,Active,,,http://www.redfin.com/IL/Chicago/30-E-Division-St-60610/unit-15A/home/14122961,MRED,11180164,N,Y,41.9043262,-87.6273128
MLS Listing,,Condo/Co-op,1501 N State Pkwy Unit 4A,Chicago,IL,60610,1329999,3,3.0,CHI - Near North Side,2300,,1975,72,578,1410,Active,,,http://www.redfin.com/IL/Chicago/1501-N-State-Pkwy-60610/unit-4A/home/14126842,MRED,11179460,N,Y,41.909779,-87.628438
MLS Listing,,Condo/Co-op,21 W Goethe St Unit 18GH,Chicago,IL,60610,499000,3,2.0,CHI - Near North Side,1800,,1962,72,277,1889,Active,,,http://www.redfin.com/IL/Chicago/21-W-Goethe-St-60610/unit-18GH/home/147761147,MRED,11179168,N,Y,41.9054585,-87.6296264
MLS Listing,,Condo/Co-op,219 E Lake Shore Dr Unit 2A,Chicago,IL,60611,4925000,5,7.0,CHI - Near North Side,6000,,1922,72,821,5394,Active,,,http://www.redfin.com/IL/Chicago/219-E-Lake-Shore-Dr-60611/unit-2A/home/14119856,MRED,11178737,N,Y,41.9007052,-87.6209922
MLS Listing,,Condo/Co-op,1440 N Lake Shore Dr Unit 28C,Chicago,IL,60610,320000,1,1.0,CHI - Near North Side,875,,1967,72,366,886,Active,,,http://www.redfin.com/IL/Chicago/1440-N-Lake-Shore-Dr-60610/unit-28C/home/14125313,MRED,11178569,N,Y,41.9089622,-87.6266981
MLS Listing,,Condo/Co-op,1350 N Astor St Unit 10B,Chicago,IL,60610,360000,2,2.0,CHI - Near North Side,1250,,1949,72,288,1392,Active,,,http://www.redfin.com/IL/Chicago/1350-N-Astor-St-60610/unit-10B/home/28795073,MRED,11178229,N,Y,41.9074012,-87.6279701
MLS Listing,,Condo/Co-op,1040 N Lake Shore Dr Unit 6D,Chicago,IL,60611,2375000,3,3.5,CHI - Near North Side,3020,,1964,73,786,2609,Active,,,http://www.redfin.com/IL/Chicago/1040-N-Lake-Shore-Dr-60611/unit-6D/home/14123521,MRED,11177090,N,Y,41.9020249,-87.6246949
MLS Listing,,Single Family Residential,21 E Scott St,Chicago,IL,60610,2997747,4,5.5,CHI - Near North Side,4900,2182,1873,77,612,,Active,,,http://www.redfin.com/IL/Chicago/21-E-Scott-St-60610/home/14124143,MRED,11173379,N,Y,41.9046565,-87.6278236
MLS Listing,,Condo/Co-op,1516 N State Pkwy Unit 17C,Chicago,IL,60610,360000,2,2.0,CHI - Near North Side,1500,,1974,78,240,1232,Active,,,http://www.redfin.com/IL/Chicago/1516-N-State-Pkwy-60610/unit-17C/home/14114656,MRED,11155166,N,Y,41.9099393,-87.6291657
MLS Listing,,Condo/Co-op,1445 N State Pkwy #2002,Chicago,IL,60610,265000,2,2.0,CHI - Near North Side,,,1958,78,,1559,Active,,,http://www.redfin.com/IL/Chicago/1445-N-State-Pkwy-60610/unit-2002/home/14126337,MRED,11172200,N,Y,41.9091114,-87.6282751
MLS Listing,,Condo/Co-op,45 E Cedar St #400,Chicago,IL,60611,2350000,5,3.5,CHI - Near North Side,,,1996,79,,1000,Active,,,http://www.redfin.com/IL/Chicago/45-E-Cedar-St-60611/unit-400/home/176339876,MRED,11171651,N,Y,41.902142,-87.6266205
MLS Listing,,Condo/Co-op,1555 N Dearborn Pkwy Unit 12E,Chicago,IL,60610,239000,1,1.0,CHI - Near North Side,873,,1967,79,274,996,Active,,,http://www.redfin.com/IL/Chicago/1555-N-Dearborn-Pkwy-60610/unit-12E/home/14115052,MRED,11171318,N,Y,41.9110351,-87.6297062
MLS Listing,,Condo/Co-op,1440 N Lake Shore Dr Unit 35M,Chicago,IL,60610,699000,3,3.0,CHI - Near North Side,2047,,1965,79,341,2023,Active,,,http://www.redfin.com/IL/Chicago/1440-N-Lake-Shore-Dr-60610/unit-35M/home/175881906,MRED,11170646,N,Y,41.9089622,-87.6266981
MLS Listing,,Condo/Co-op,1 E Scott St #2312,Chicago,IL,60610,159900,0,1.0,CHI - Near North Side,,,1968,80,,515,Active,,,http://www.redfin.com/IL/Chicago/1-E-Scott-St-60610/unit-2312/home/14123106,MRED,11170496,N,Y,41.9044611,-87.6282767
MLS Listing,,Condo/Co-op,1320 N State Pkwy Unit 4D,Chicago,IL,60610,849000,3,2.0,CHI - Near North Side,2700,,,80,314,5146,Active,,,http://www.redfin.com/IL/Chicago/1320-N-State-Pkwy-60610/unit-4D/home/175861074,MRED,11169979,N,Y,41.9064531,-87.6290074
MLS Listing,,Condo/Co-op,1320 N State Pkwy Unit 11A,Chicago,IL,60610,1275000,2,2.5,CHI - Near North Side,2700,,1927,80,472,5551,Active,,,http://www.redfin.com/IL/Chicago/1320-N-State-Pkwy-60610/unit-11-A/home/13079443,MRED,11169933,N,Y,41.9064531,-87.6290074
MLS Listing,,Condo/Co-op,1516 N State Pkwy Unit 16D,Chicago,IL,60610,499900,3,2.0,CHI - Near North Side,1500,,1972,80,333,1453,Active,October-16-2021 11:00 AM,October-16-2021 12:30 PM,http://www.redfin.com/IL/Chicago/1516-N-State-Pkwy-60610/unit-16D/home/14114354,MRED,11169914,N,Y,41.9099393,-87.6291657
MLS Listing,,Condo/Co-op,1340 N State Pkwy Unit 3S,Chicago,IL,60610,2750000,4,4.5,CHI - Near North Side,4300,,1900,81,640,3077,Active,,,http://www.redfin.com/IL/Chicago/1340-N-State-Pkwy-60610/unit-3S/home/14112348,MRED,11168761,N,Y,41.9071158,-87.6292002
MLS Listing,,Condo/Co-op,1340 N Dearborn St Unit 12A,Chicago,IL,60610,225000,1,1.0,CHI - Near North Side,,,1969,81,,453,Active,,,http://www.redfin.com/IL/Chicago/1340-N-Dearborn-St-60610/unit-12A/home/14112100,MRED,11168562,N,Y,41.906948,-87.6304758
MLS Listing,,Condo/Co-op,73 E Elm St Unit 10B,Chicago,IL,60611,655000,2,2.0,CHI - Near North Side,1675,,1928,81,391,1893,Active,,,http://www.redfin.com/IL/Chicago/73-E-Elm-St-60611/unit-10B/home/14123311,MRED,11168320,N,Y,41.9029066,-87.626004
MLS Listing,,Condo/Co-op,1200 N Lake Shore Dr Unit M5-M6,Chicago,IL,60610,1298000,3,3.5,CHI - Near North Side,2950,,1912,84,440,3421,Active,,,http://www.redfin.com/IL/Chicago/1200-N-Lake-Shore-Dr-60610/unit-M5-M6/home/114088016,MRED,11167180,N,Y,41.9041948,-87.6254868
MLS Listing,,Condo/Co-op,1310 N Ritchie Ct Unit 6A,Chicago,IL,60610,485000,2,2.0,CHI - Near North Side,1350,,1963,84,359,1168,Active,,,http://www.redfin.com/IL/Chicago/1310-N-Ritchie-Ct-60610/unit-6A/home/14124475,MRED,11126508,N,Y,41.9064866,-87.62685
MLS Listing,,Condo/Co-op,1 E Schiller St Unit 3C,Chicago,IL,60610,299000,2,2.0,CHI - Near North Side,1250,,1964,85,239,1052,Active,,,http://www.redfin.com/IL/Chicago/1-E-Schiller-St-60610/unit-3C/home/14124069,MRED,11165805,N,Y,41.907619,-87.6281771
MLS Listing,,Townhouse,55 W Goethe St #1214,Chicago,IL,60610,1000000,3,3.5,CHI - Near North Side,2968,,1989,85,337,1142,Active,,,http://www.redfin.com/IL/Chicago/55-W-Goethe-St-60610/unit-1214/home/14111753,MRED,11165160,N,Y,41.904413,-87.631099
MLS Listing,,Condo/Co-op,1000 N Lake Shore Plz Unit 13B,Chicago,IL,60611,775000,2,2.5,CHI - Near North Side,2100,,1964,86,369,2278,Active,,,http://www.redfin.com/IL/Chicago/1000-N-Lake-Shore-Dr-60611/unit-13B/home/14122809,MRED,11163462,N,Y,41.9012375,-87.6245855
MLS Listing,,Condo/Co-op,1340 N Dearborn St Unit 10W,Chicago,IL,60610,499000,2,2.5,CHI - Near North Side,1876,,1969,87,266,1114,Active,October-16-2021 12:00 PM,October-16-2021 01:30 PM,http://www.redfin.com/IL/Chicago/1340-N-Dearborn-St-60610/unit-10W/home/175753919,MRED,11162569,N,Y,41.906948,-87.6304758
MLS Listing,,Condo/Co-op,1300 N State Pkwy #504,Chicago,IL,60610,1195000,2,2.5,CHI - Near North Side,2058,,1924,88,581,1553,Active,,,http://www.redfin.com/IL/Chicago/1300-N-State-Pkwy-60610/unit-504/home/18945449,MRED,11160997,N,Y,41.9059886,-87.6290089
MLS Listing,,Condo/Co-op,1200 N Lake Shore Dr #602,Chicago,IL,60610,1295000,2,2.0,CHI - Near North Side,1800,,1914,91,719,2383,Active,,,http://www.redfin.com/IL/Chicago/1200-N-Lake-Shore-Dr-60610/unit-602/home/14124273,MRED,11158440,N,Y,41.904179,-87.6253919
MLS Listing,,Condo/Co-op,1110 N Lake Shore Dr Unit 27N,Chicago,IL,60611,699900,3,2.5,CHI - Near North Side,2200,,1970,92,318,1741,Active,,,http://www.redfin.com/IL/Chicago/1110-N-Lake-Shore-Dr-60611/unit-27N/home/12558004,MRED,11156923,N,Y,41.902836,-87.625043
MLS Listing,,Condo/Co-op,1516 N State Pkwy Unit 21A,Chicago,IL,60610,1399000,3,2.5,CHI - Near North Side,2850,,1974,94,491,2960,Active,,,http://www.redfin.com/IL/Chicago/1516-N-State-Pkwy-60610/unit-21A/home/14113607,MRED,11154957,N,Y,41.9099393,-87.6291657
MLS Listing,,Condo/Co-op,21 W Goethe St Unit 7F,Chicago,IL,60610,229000,1,1.0,CHI - Near North Side,,,1970,94,,740,Active,,,http://www.redfin.com/IL/Chicago/21-W-Goethe-St-60610/unit-7F/home/14111557,MRED,11154720,N,Y,41.9054585,-87.6296264
MLS Listing,,Single Family Residential,21 E Cedar St,Chicago,IL,60611,5995000,6,5.5,CHI - Near North Side,7900,2221,2010,95,759,,Active,,,http://www.redfin.com/IL/Chicago/21-E-Cedar-St-60611/home/14123576,MRED,11132295,N,Y,41.9021579,-87.6273917
MLS Listing,,Condo/Co-op,1300 N Astor St Unit 22AS,Chicago,IL,60610,495000,2,2.0,CHI - Near North Side,1550,,1962,95,319,1761,Active,,,http://www.redfin.com/IL/Chicago/1300-N-Astor-St-60610/unit-22AS/home/12669895,MRED,11152828,N,Y,41.9059804,-87.6276829
MLS Listing,,Condo/Co-op,1440 N Lake Shore Dr Unit 6CD,Chicago,IL,60610,925000,3,3.0,CHI - Near North Side,2300,,1965,97,402,2075,Active,,,http://www.redfin.com/IL/Chicago/1440-N-Lake-Shore-Dr-60610/unit-6CD/home/172278810,MRED,11152011,N,Y,41.9089622,-87.6266981
MLS Listing,,Condo/Co-op,1240 N Lake Shore Dr Unit 32A,Chicago,IL,60610,985000,4,3.5,CHI - Near North Side,2200,,1970,98,448,2071,Active,,,http://www.redfin.com/IL/Chicago/1240-N-Lake-Shore-Dr-60610/unit-32A/home/14124567,MRED,11150379,N,Y,41.905113,-87.62552
MLS Listing,,Single Family Residential,1306 N Ritchie Ct,Chicago,IL,60610,2895000,6,4.0,CHI - Near North Side,,1398,1900,99,,,Active,October-17-2021 11:00 AM,October-17-2021 01:00 PM,http://www.redfin.com/IL/Chicago/1306-N-Ritchie-Ct-60610/home/14125208,MRED,11081659,N,Y,41.906125,-87.626848
MLS Listing,,Condo/Co-op,1150 N Lake Shore Dr Unit 4H,Chicago,IL,60611,435000,2,2.0,CHI - Near North Side,1410,,1957,99,309,1278,Active,,,http://www.redfin.com/IL/Chicago/1150-N-Lake-Shore-Dr-60611/unit-4H/home/14122890,MRED,11148729,N,Y,41.903695,-87.625372
MLS Listing,,Single Family Residential,30 E Scott St,Chicago,IL,60610,2895000,4,4.0,CHI - Near North Side,3350,1197,1886,99,864,,Active,,,http://www.redfin.com/IL/Chicago/30-E-Scott-St-60610/home/14124430,MRED,11148464,N,Y,41.9050466,-87.6275271
MLS Listing,,Condo/Co-op,1445 N State Pkwy #2005,Chicago,IL,60610,335000,2,2.0,CHI - Near North Side,,,,100,,1754,Active,,,http://www.redfin.com/IL/Chicago/1445-N-State-Pkwy-60610/unit-2005/home/14126896,MRED,11147303,N,Y,41.9091114,-87.6282751
MLS Listing,,Condo/Co-op,45 E Cedar St #200,Chicago,IL,60611,2269000,3,3.5,CHI - Near North Side,,,1996,100,,1045,Active,,,http://www.redfin.com/IL/Chicago/45-E-Cedar-St-60611/unit-200/home/171377478,MRED,11146948,N,Y,41.902142,-87.6266205
MLS Listing,,Condo/Co-op,33 E Cedar St Unit 12G,Chicago,IL,60611,175000,1,1.0,CHI - Near North Side,800,,1958,105,219,820,Active,,,http://www.redfin.com/IL/Chicago/33-E-Cedar-St-60611/unit-12G/home/14122031,MRED,11142957,N,Y,41.9022307,-87.6271603
MLS Listing,,Condo/Co-op,1212 N Lake Shore Dr Unit 20CN,Chicago,IL,60610,899000,2,2.0,CHI - Near North Side,1800,,1970,106,499,1361,Active,,,http://www.redfin.com/IL/Chicago/1212-N-Lake-Shore-Dr-60610/unit-20CN/home/14123277,MRED,11142022,N,Y,41.9045194,-87.6253855
MLS Listing,,Condo/Co-op,1242 N Lake Shore Dr Unit 13S,Chicago,IL,60610,1099000,3,4.0,CHI - Near North Side,3000,,1929,107,366,2971,Active,,,http://www.redfin.com/IL/Chicago/1242-N-Lake-Shore-Dr-60610/unit-13S/home/39544300,MRED,11140578,N,Y,41.9053146,-87.6254825
MLS Listing,,Condo/Co-op,179 E Lake Shore Dr #301,Chicago,IL,60611,350000,1,1.0,Drake Tower,985,,1928,108,355,2560,Active,,,http://www.redfin.com/IL/Chicago/179-E-Lake-Shore-Dr-60611/unit-301/home/39693792,MRED,11139961,N,Y,41.9006308,-87.6226581
MLS Listing,,Condo/Co-op,1440 N Lake Shore Dr Unit 27A,Chicago,IL,60610,549000,3,2.5,CHI - Near North Side,1720,,1962,108,319,1602,Active,October-16-2021 12:30 PM,October-16-2021 02:00 PM,http://www.redfin.com/IL/Chicago/1440-N-Lake-Shore-Dr-60610/unit-27A/home/14124768,MRED,11139802,N,Y,41.9089622,-87.6266981
MLS Listing,,Condo/Co-op,1313 N Ritchie Ct #1505,Chicago,IL,60610,299900,1,1.0,CHI - Near North Side,985,,1972,111,304,764,Active,,,http://www.redfin.com/IL/Chicago/1313-N-Ritchie-Ct-60610/unit-1505/home/14125672,MRED,11137244,N,Y,41.9061626,-87.6261578
MLS Listing,,Condo/Co-op,1120 N Lake Shore Dr Unit 17AB,Chicago,IL,60611,1408000,4,3.0,CHI - Near North Side,3000,,1924,112,469,5450,Active,,,http://www.redfin.com/IL/Chicago/1120-N-Lake-Shore-Dr-60611/unit-17AB/home/175297977,MRED,11136772,N,Y,41.9030623,-87.6250979
MLS Listing,,Condo/Co-op,1430 N Astor St Unit 17B,Chicago,IL,60610,589900,2,2.0,CHI - Near North Side,1528,,1972,113,386,1660,Active,,,http://www.redfin.com/IL/Chicago/1430-N-Astor-St-60610/unit-17B/home/14126826,MRED,11135255,N,Y,41.9085806,-87.6279494
MLS Listing,,Condo/Co-op,1400 N State Pkwy Unit 17B,Chicago,IL,60610,219000,1,1.0,CHI - Near North Side,850,,1967,113,258,871,Active,,,http://www.redfin.com/IL/Chicago/1400-N-State-Pkwy-60610/unit-17B/home/14114184,MRED,11130896,N,Y,41.9079255,-87.6290073
MLS Listing,,Condo/Co-op,1110 N Lake Shore Dr Unit 32S,Chicago,IL,60611,512000,2,2.5,CHI - Near North Side,1830,,1970,113,280,2643,Active,,,http://www.redfin.com/IL/Chicago/1110-N-Lake-Shore-Dr-60611/unit-32S/home/14122486,MRED,11134714,N,Y,41.902836,-87.625043
MLS Listing,,Condo/Co-op,199 E Lake Shore Dr Ph 10W,Chicago,IL,60611,4500000,3,4.0,CHI - Near North Side,4232,,1913,113,1063,6423,Active,,,http://www.redfin.com/IL/Chicago/199-E-Lake-Shore-Dr-60611/unit-10W/home/167846377,MRED,11134285,N,Y,41.9006452,-87.6218406
MLS Listing,,Condo/Co-op,1555 N Astor St Unit 19SE,Chicago,IL,60610,750000,2,2.0,CHI - Near North Side,1600,,1977,113,469,1376,Active,,,http://www.redfin.com/IL/Chicago/1555-N-Astor-St-60610/unit-19SE/home/14126835,MRED,11134101,N,Y,41.9110448,-87.6273343
MLS Listing,,Single Family Residential,60 E Elm St,Chicago,IL,60611,2190000,4,3.0,CHI - Near North Side,,1733,1870,114,,,Active,,,http://www.redfin.com/IL/Chicago/60-E-Elm-St-60611/home/14122931,MRED,11133462,N,Y,41.903367,-87.626424
MLS Listing,,Condo/Co-op,70 E Cedar St Unit 8W,Chicago,IL,60611,640000,3,3.0,CHI - Near North Side,2400,,1926,116,267,4452,Active,,,http://www.redfin.com/IL/Chicago/70-E-Cedar-St-60611/unit-8W/home/21795415,MRED,11130427,N,Y,41.9026645,-87.6255413
MLS Listing,,Condo/Co-op,20 E Cedar St Unit 4A,Chicago,IL,60611,1599999,3,2.5,CHI - Near North Side,3080,,,119,519,1985,Active,,,http://www.redfin.com/IL/Chicago/20-E-Cedar-St-60611/unit-4A/home/14122972,MRED,11128269,N,Y,41.902721,-87.6273372
MLS Listing,,Condo/Co-op,1000 N Lake Shore Plz Unit 43D,Chicago,IL,60611,1074900,3,2.5,CHI - Near North Side,2100,,1964,119,512,2277,Active,,,http://www.redfin.com/IL/Chicago/1000-N-Lake-Shore-Dr-60611/unit-43D/home/14121219,MRED,11127978,N,Y,41.9012375,-87.6245855
MLS Listing,,Condo/Co-op,1445 N State Pkwy #1806,Chicago,IL,60610,237000,1,1.0,CHI - Near North Side,,,1958,119,,907,Active,,,http://www.redfin.com/IL/Chicago/1445-N-State-Pkwy-60610/unit-1806/home/14125521,MRED,11127698,N,Y,41.9091114,-87.6282751
MLS Listing,,Condo/Co-op,1530 N Dearborn Pkwy Unit 18S,Chicago,IL,60610,550000,2,2.0,CHI - Near North Side,1825,,1972,120,301,1482,Active,,,http://www.redfin.com/IL/Chicago/1530-N-Dearborn-Pkwy-60610/unit-18S/home/171915670,MRED,11127249,N,Y,41.910389,-87.630606
MLS Listing,,Condo/Co-op,65 E Goethe Unit 8W,Chicago,IL,60610,3250000,3,3.5,CHI - Near North Side,3300,,2000,122,985,5228,Active,,,http://www.redfin.com/IL/Chicago/65-E-Goethe-St-60610/unit-8W/home/45510969,MRED,11123975,N,Y,41.9056992,-87.6262349
MLS Listing,,Condo/Co-op,1440 N Lake Shore Dr Unit 9H,Chicago,IL,60610,549000,3,2.5,CHI - Near North Side,1800,,1965,122,305,1602,Active,,,http://www.redfin.com/IL/Chicago/1440-N-Lake-Shore-Dr-60610/unit-9H/home/14124778,MRED,11123605,N,Y,41.9089622,-87.6266981
MLS Listing,,Condo/Co-op,1110 N Lake Shore Dr Unit 20S,Chicago,IL,60611,599000,2,2.5,CHI - Near North Side,2079,,1970,122,288,2503,Active,,,http://www.redfin.com/IL/Chicago/1110-N-Lake-Shore-Dr-60611/unit-20S/home/14122487,MRED,11123309,N,Y,41.902836,-87.625043
MLS Listing,,Condo/Co-op,1212 N Lake Shore Dr Unit 34BN,Chicago,IL,60610,872500,2,2.0,CHI - Near North Side,1700,,1970,123,513,1384,Active,,,http://www.redfin.com/IL/Chicago/1212-N-Lake-Shore-Dr-60610/unit-34BN/home/14123074,MRED,11122247,N,Y,41.9045194,-87.6253855
MLS Listing,,Condo/Co-op,219 E Lake Shore Dr Unit 11CD,Chicago,IL,60611,3145000,4,4.5,CHI - Near North Side,4400,,1922,127,715,4936,Active,,,http://www.redfin.com/IL/Chicago/219-E-Lake-Shore-Dr-60611/unit-11CD/home/77305976,MRED,11117959,N,Y,41.9006646,-87.6209547
MLS Listing,,Condo/Co-op,1430 N Lake Shore Dr #7,Chicago,IL,60610,3500000,4,5.0,CHI - Near North Side,4750,,1928,128,737,8156,Active,,,http://www.redfin.com/IL/Chicago/1430-N-Lake-Shore-Dr-60610/unit-7/home/40615701,MRED,11053609,N,Y,41.9087249,-87.6264668
MLS Listing,,Condo/Co-op,999 N Lake Shore Dr Unit 3C,Chicago,IL,60611,1150000,3,3.0,CHI - Near North Side,2663,,1912,128,432,5304,Active,,,http://www.redfin.com/IL/Chicago/999-N-Lake-Shore-Dr-60611/unit-3C/home/13168217,MRED,11116488,N,Y,41.9006861,-87.6200667
MLS Listing,,Single Family Residential,40 E Burton Pl,Chicago,IL,60610,3745000,11,7.5,CHI - Near North Side,10774,5937,1909,129,348,,Active,,,http://www.redfin.com/IL/Chicago/40-E-Burton-Pl-60610/home/172674211,MRED,11116034,N,Y,41.90967,-87.6273143
MLS Listing,,Condo/Co-op,1515 N Astor St Unit 9C,Chicago,IL,60610,575000,2,2.0,Park Astor,1800,,1968,133,319,2031,Active,,,http://www.redfin.com/IL/Chicago/1515-N-Astor-St-60610/unit-9C/home/14126441,MRED,11111623,N,Y,41.9101306,-87.6271608
MLS Listing,,Condo/Co-op,70 E Scott St #808,Chicago,IL,60610,229000,1,1.0,CHI - Near North Side,750,,1917,133,305,484,Active,October-16-2021 12:00 PM,October-16-2021 04:00 PM,http://www.redfin.com/IL/Chicago/70-E-Scott-St-60610/unit-808/home/14124151,MRED,11111306,N,Y,41.9051023,-87.6260443
MLS Listing,,Condo/Co-op,1440 N Lake Shore Dr Unit 34AC,Chicago,IL,60610,575000,2,2.5,CHI - Near North Side,2500,,1965,134,230,2400,Active,,,http://www.redfin.com/IL/Chicago/1440-N-Lake-Shore-Dr-60610/unit-34AC/home/14125309,MRED,11110066,N,Y,41.9089622,-87.6266981
MLS Listing,,Condo/Co-op,999 N Lake Shore Dr Unit 2A,Chicago,IL,60611,1995000,3,3.5,CHI - Near North Side,4000,,1912,135,499,4908,Active,,,http://www.redfin.com/IL/Chicago/999-N-Lake-Shore-Dr-60611/unit-2-A/home/17454787,MRED,11109099,N,Y,41.9006861,-87.6200667
MLS Listing,,Condo/Co-op,1445 N State Pkwy #1306,Chicago,IL,60611,282000,2,2.0,CHI - Near North Side,,,1966,135,,1325,Active,,,http://www.redfin.com/IL/Chicago/1445-N-State-Pkwy-60610/unit-1306/home/14126341,MRED,11108610,N,Y,41.9091114,-87.6282751
MLS Listing,,Condo/Co-op,1221 N Dearborn St Ph 8N,Chicago,IL,60610,225000,1,1.0,CHI - Near North Side,860,,1974,136,262,599,Active,,,http://www.redfin.com/IL/Chicago/1221-N-Dearborn-St-60610/unit-8N/home/12770933,MRED,11107439,N,Y,41.9046835,-87.6296264
MLS Listing,,Condo/Co-op,1440 N Lake Shore Dr Unit 11F,Chicago,IL,60610,159000,0,1.0,CHI - Near North Side,650,,1964,136,245,605,Active,,,http://www.redfin.com/IL/Chicago/1440-N-Lake-Shore-Dr-60610/unit-11F/home/14125179,MRED,11107044,N,Y,41.9089622,-87.6266981
MLS Listing,,Condo/Co-op,1300 N State Pkwy #402,Chicago,IL,60610,1600000,2,3.0,CHI - Near North Side,2888,,1924,136,554,2706,Active,,,http://www.redfin.com/IL/Chicago/1300-N-State-Pkwy-60610/unit-402/home/12625646,MRED,11106506,N,Y,41.9059886,-87.6290089
MLS Listing,,Condo/Co-op,1221 N Dearborn St Unit 1403N,Chicago,IL,60610,285000,2,1.5,CHI - Near North Side,,,1972,142,,700,Active,,,http://www.redfin.com/IL/Chicago/1221-N-Dearborn-St-60610/unit-1403N/home/14111272,MRED,11101564,N,Y,41.9046835,-87.6296264
MLS Listing,,Condo/Co-op,1540 N State Pkwy N Unit 8C,Chicago,IL,60610,350000,2,2.0,CHI - Near North Side,1150,,1970,142,304,849,Active,,,http://www.redfin.com/IL/Chicago/1540-N-State-Pkwy-60610/unit-8C/home/14113668,MRED,11100660,N,Y,41.910666,-87.629243
MLS Listing,,Condo/Co-op,1300 N Lake Shore Dr Unit 9A,Chicago,IL,60610,1249000,2,2.5,CHI - Near North Side,2200,,1963,143,568,2176,Active,,,http://www.redfin.com/IL/Chicago/1300-N-Lake-Shore-Dr-60610/unit-9A/home/14124464,MRED,11100215,N,Y,41.9062326,-87.625621
MLS Listing,,Condo/Co-op,70 E Cedar St Unit 8EAST,Chicago,IL,60611,695000,4,3.0,CHI - Near North Side,2800,,1928,143,248,4987,Active,,,http://www.redfin.com/IL/Chicago/70-E-Cedar-St-60611/unit-8EAST/home/145873981,MRED,11099382,N,Y,41.9026645,-87.6255413
MLS Listing,,Condo/Co-op,65 E Goethe St Unit M103,Chicago,IL,60610,6775000,3,5.0,CHI - Near North Side,7500,,2001,144,903,6788,Active,,,http://www.redfin.com/IL/Chicago/65-E-Goethe-St-60610/unit-M103/home/148118281,MRED,11098264,N,Y,41.9056992,-87.6262349
MLS Listing,,Condo/Co-op,1440 N Lake Shore Dr Unit 18D,Chicago,IL,60610,489000,2,2.0,CHI - Near North Side,1400,,1967,147,349,1347,Active,,,http://www.redfin.com/IL/Chicago/1440-N-Lake-Shore-Dr-60610/unit-18D/home/14124118,MRED,11096337,N,Y,41.9089622,-87.6266981
MLS Listing,,Condo/Co-op,1000 N Lake Shore Plz Unit 40C,Chicago,IL,60611,735000,2,2.5,CHI - Near North Side,2100,,1964,148,350,2135,Active,,,http://www.redfin.com/IL/Chicago/1000-N-Lake-Shore-Dr-60611/unit-40C/home/14121865,MRED,11095148,N,Y,41.9012375,-87.6245855
MLS Listing,,Condo/Co-op,30 E Elm St Unit 7F,Chicago,IL,60611,179500,1,1.0,CHI - Near North Side,750,,1962,148,239,548,Active,,,http://www.redfin.com/IL/Chicago/30-E-Elm-St-60611/unit-7F/home/14123375,MRED,11095127,N,Y,41.9034566,-87.627527
MLS Listing,,Condo/Co-op,179 E Lake Shore Dr Unit 19S,Chicago,IL,60611,400000,2,2.0,CHI - Near North Side,1530,,1928,150,261,3414,Active,,,http://www.redfin.com/IL/Chicago/179-E-Lake-Shore-Dr-60611/unit-19S/home/174615298,MRED,11091575,N,Y,41.9006308,-87.6226581
MLS Listing,,Single Family Residential,42 E Schiller St,Chicago,IL,60610,2695000,5,3.5,CHI - Near North Side,4036,2151,1885,154,668,,Active,,,http://www.redfin.com/IL/Chicago/42-E-Schiller-St-60610/home/14126874,MRED,11088420,N,Y,41.9079843,-87.6271417
MLS Listing,,Condo/Co-op,1400 N State Pkwy Unit 5DEF,Chicago,IL,60610,725000,4,3.0,CHI - Near North Side,3000,,1960,157,242,2357,Active,,,http://www.redfin.com/IL/Chicago/1400-N-State-Pkwy-60610/unit-5DEF/home/144933289,MRED,11083459,N,Y,41.9079255,-87.6290073
MLS Listing,,Single Family Residential,57 E Elm St,Chicago,IL,60610,2600000,5,5.0,CHI - Near North Side,3600,1550,1893,158,722,,Active,,,http://www.redfin.com/IL/Chicago/57-E-Elm-St-60611/home/14122753,MRED,11082936,N,Y,41.9029754,-87.6265246
MLS Listing,,Condo/Co-op,1448 N Lake Shore Dr Unit 5A,Chicago,IL,60610,699000,3,2.5,CHI - Near North Side,2100,,1927,158,333,3857,Active,,,http://www.redfin.com/IL/Chicago/1448-N-Lake-Shore-Dr-60610/unit-5A/home/17582381,MRED,11082790,N,Y,41.9092734,-87.626852
MLS Listing,,Condo/Co-op,1120 N Lake Shore Dr Unit 6-7D,Chicago,IL,60611,575000,3,2.5,CHI - Near North Side,2050,,1924,158,280,3505,Active,,,http://www.redfin.com/IL/Chicago/1120-N-Lake-Shore-Dr-60611/unit-6-7D/home/175105751,MRED,11082295,N,Y,41.9030623,-87.6250979
MLS Listing,,Condo/Co-op,1500 N Lake Shore Dr Unit 4B,Chicago,IL,60610,1649000,3,3.5,CHI - Near North Side,3300,,1928,162,500,7671,Active,,,http://www.redfin.com/IL/Chicago/1500-N-Lake-Shore-Dr-60610/unit-4B/home/40010551,MRED,11078206,N,Y,41.9098168,-87.6269297
MLS Listing,,Single Family Residential,1521 N State Pkwy,Chicago,IL,60610,9950000,6,7.0,CHI - Near North Side,9700,3706,1894,163,1026,,Active,,,http://www.redfin.com/IL/Chicago/1521-N-State-Pkwy-60610/home/14125985,MRED,11076781,N,Y,41.910189,-87.628448
MLS Listing,,Condo/Co-op,73 E Elm St Unit 1B,Chicago,IL,60611,315000,1,1.0,CHI - Near North Side,1485,,1928,163,212,1593,Active,,,http://www.redfin.com/IL/Chicago/73-E-Elm-St-60611/unit-1B/home/14122475,MRED,11076713,N,Y,41.9029066,-87.626004
MLS Listing,,Condo/Co-op,1212 N Lake Shore Dr Unit 19AS,Chicago,IL,60610,1085000,3,2.0,CHI - Near North Side,2150,,1970,164,505,1651,Active,,,http://www.redfin.com/IL/Chicago/1212-N-Lake-Shore-Dr-60610/unit-19AS/home/14123080,MRED,11076094,N,Y,41.9045194,-87.6253855
MLS Listing,,Condo/Co-op,1500 N Lake Shore Dr Unit 6A,Chicago,IL,60610,2950000,3,3.5,CHI - Near North Side,4200,,1928,165,702,10582,Active,,,http://www.redfin.com/IL/Chicago/1500-N-Lake-Shore-Dr-60610/unit-6A/home/142914735,MRED,11074321,N,Y,41.9098168,-87.6269297
MLS Listing,,Condo/Co-op,4 E Elm St #20,Chicago,IL,60611,12900000,6,5.5,CHI - Near North Side,6600,,2016,165,1955,6710,Active,,,http://www.redfin.com/IL/Chicago/4-E-Elm-St-60610/unit-20/home/175049514,MRED,11074134,N,Y,41.9033068,-87.6284213
MLS Listing,,Townhouse,1100 N Lake Shore Dr Unit 35A,Chicago,IL,60611,649000,3,3.0,CHI - Near North Side,2040,,1980,165,318,2076,Active,,,http://www.redfin.com/IL/Chicago/1100-N-Lake-Shore-Dr-60611/unit-35A/home/14124039,MRED,11073943,N,Y,41.902686,-87.625161
MLS Listing,,Condo/Co-op,10 E Schiller St Unit 2E,Chicago,IL,60610,1699000,4,3.5,CHI - Near North Side,2880,,1920,168,590,2454,Active,,,http://www.redfin.com/IL/Chicago/10-E-Schiller-St-60610/unit-2E/home/14125822,MRED,11071798,N,Y,41.9079537,-87.628372
MLS Listing,,Condo/Co-op,179 E Lake Shore Dr Unit 22W,Chicago,IL,60611,1495000,3,3.5,Drake Tower,3535,,1928,169,423,6637,Active,,,http://www.redfin.com/IL/Chicago/179-E-Lake-Shore-Dr-60611/unit-22W/home/173898751,MRED,11069926,N,Y,41.9006308,-87.6226581
MLS Listing,,Condo/Co-op,990 N Lake Shore Dr Unit 6B,Chicago,IL,60611,515000,2,2.0,CHI - Near North Side,1430,,1971,169,360,1240,Active,,,http://www.redfin.com/IL/Chicago/990-N-Lake-Shore-Dr-60611/unit-6B/home/14121079,MRED,11069656,N,Y,41.9003001,-87.6201438
MLS Listing,,Townhouse,1500 N Astor St #3,Chicago,IL,60610,999000,3,3.5,CHI - Near North Side,2735,,1891,170,365,2514,Active,,,http://www.redfin.com/IL/Chicago/1500-N-Astor-St-60610/unit-3/home/14126678,MRED,11069277,N,Y,41.9097651,-87.6280645
MLS Listing,,Condo/Co-op,1150 N Lake Shore Dr Unit 2H,Chicago,IL,60611,249000,2,1.0,CHI - Near North Side,,,1958,170,,769,Active,,,http://www.redfin.com/IL/Chicago/1150-N-Lake-Shore-Dr-60611/unit-2H/home/14124269,MRED,11069009,N,Y,41.903695,-87.625372
MLS Listing,,Condo/Co-op,1212 N Lake Shore Dr Unit 33BN,Chicago,IL,60610,849000,2,2.0,CHI - Near North Side,1700,,1970,174,499,1384,Active,,,http://www.redfin.com/IL/Chicago/1212-N-Lake-Shore-Dr-60610/unit-33BN/home/14122993,MRED,11065350,N,Y,41.9045194,-87.6253855
MLS Listing,,Condo/Co-op,1340 N Dearborn St Unit 8F,Chicago,IL,60610,175000,0,1.0,CHI - Near North Side,650,,1965,176,269,404,Active,,,http://www.redfin.com/IL/Chicago/1340-N-Dearborn-St-60610/unit-8F/home/14112598,MRED,11062884,N,Y,41.906948,-87.6304758
MLS Listing,,Condo/Co-op,1427 N Dearborn Pkwy Unit 1S,Chicago,IL,60610,679900,3,3.0,Cordova,2000,,,178,340,863,Active,,,http://www.redfin.com/IL/Chicago/1427-N-Dearborn-St-60610/unit-1S/home/12791353,MRED,11060061,N,Y,41.908641,-87.629746
MLS Listing,,Condo/Co-op,21 W Goethe St Unit 12D,Chicago,IL,60610,129999,0,1.0,CHI - Near North Side,,,1964,179,,556,Active,,,http://www.redfin.com/IL/Chicago/21-W-Goethe-St-60610/unit-12D/home/14111959,MRED,11059303,N,Y,41.9054585,-87.6296264
MLS Listing,,Condo/Co-op,1242 N Lake Shore Dr #24,Chicago,IL,60610,1695000,4,3.5,CHI - Near North Side,4500,,1920,184,377,3800,Active,,,http://www.redfin.com/IL/Chicago/1242-N-Lake-Shore-Dr-60610/unit-24/home/176319950,MRED,11053069,N,Y,41.9053146,-87.6254825
MLS Listing,,Condo/Co-op,33 E Bellevue Pl Ph -W7,Chicago,IL,60611,2245000,3,2.5,CHI - Near North Side,3500,,1910,185,641,2378,Active,,,http://www.redfin.com/IL/Chicago/33-E-Bellevue-Pl-60611/unit-W7/home/14122181,MRED,11052233,N,Y,41.9013329,-87.6268905
MLS Listing,,Condo/Co-op,1550 N State Pkwy Unit A1,Chicago,IL,60610,799000,3,3.0,CHI - Near North Side,2460,,1912,186,325,3621,Active,,,http://www.redfin.com/IL/Chicago/1550-N-State-Pkwy-60610/unit-A1/home/14114210,MRED,11050813,N,Y,41.9110448,-87.6292235
MLS Listing,,Condo/Co-op,60 E Scott St #502,Chicago,IL,60610,512500,2,2.0,CHI - Near North Side,1400,,1917,191,366,936,Active,,,http://www.redfin.com/IL/Chicago/60-E-Scott-St-60610/unit-502/home/14124572,MRED,11045560,N,Y,41.9050811,-87.6263125
MLS Listing,,Condo/Co-op,33 E Bellevue Pl Unit E7,Chicago,IL,60611,2995000,3,3.0,CHI - Near North Side,3094,,,197,968,2410,Active,,,http://www.redfin.com/IL/Chicago/33-E-Bellevue-Pl-60611/unit-E7/home/14122281,MRED,11039728,N,Y,41.9013329,-87.6268905
MLS Listing,,Condo/Co-op,1540 N Lake Shore Dr Unit 8N,Chicago,IL,60610,2100000,3,2.5,CHI - Near North Side,4137,,1929,197,508,4324,Active,,,http://www.redfin.com/IL/Chicago/1540-N-Lake-Shore-Dr-60610/unit-8N/home/170933085,MRED,11038738,N,Y,41.9106233,-87.6265826
MLS Listing,,Condo/Co-op,1250 N Dearborn Pkwy Unit 16D,Chicago,IL,60610,385000,2,2.0,CHI - Near North Side,1150,,1990,198,335,,Active,,,http://www.redfin.com/IL/Chicago/1250-N-Dearborn-St-60610/unit-16D/home/14112481,MRED,11037836,N,Y,41.9054191,-87.6304584
MLS Listing,,Condo/Co-op,55 W Goethe St #1249,Chicago,IL,60610,1150000,3,2.5,Beekman Place,2760,,1986,202,417,993,Active,,,http://www.redfin.com/IL/Chicago/55-W-Goethe-St-60610/unit-1249/home/14110710,MRED,11034449,N,Y,41.905505,-87.630902
MLS Listing,,Condo/Co-op,1 E Scott St #1011,Chicago,IL,60610,148000,0,1.0,CHI - Near North Side,500,,1968,203,296,574,Active,,,http://www.redfin.com/IL/Chicago/1-E-Scott-St-60610/unit-1011/home/14124133,MRED,11033886,N,Y,41.9044611,-87.6282767
MLS Listing,,Condo/Co-op,1540 N Lake Shore Dr Unit 11S,Chicago,IL,60610,925000,3,3.0,CHI - Near North Side,3600,,1926,205,257,3783,Active,,,http://www.redfin.com/IL/Chicago/1540-N-Lake-Shore-Dr-60610/unit-11S/home/170464124,MRED,11031477,N,Y,41.9106233,-87.6265826
MLS Listing,,Condo/Co-op,990 N Lake Shore Dr Unit 26D,Chicago,IL,60611,835000,2,2.0,CHI - Near North Side,1550,,1972,207,539,1367,Active,,,http://www.redfin.com/IL/Chicago/990-N-Lake-Shore-Dr-60611/unit-26D/home/14120312,MRED,11029108,N,Y,41.9003001,-87.6201438
MLS Listing,,Condo/Co-op,1550 N State Pkwy #501,Chicago,IL,60610,1400000,3,3.0,CHI - Near North Side,3200,,1912,207,438,5109,Active,,,http://www.redfin.com/IL/Chicago/1550-N-State-Pkwy-60610/unit-501/home/14113606,MRED,11028975,N,Y,41.9110448,-87.6292235
MLS Listing,,Condo/Co-op,1150 N Lake Shore Dr Unit 6K,Chicago,IL,60611,214700,1,1.0,CHI - Near North Side,780,,1958,212,275,703,Active,,,http://www.redfin.com/IL/Chicago/1150-N-Lake-Shore-Dr-60611/unit-6K/home/14123832,MRED,11024367,N,Y,41.903695,-87.625372
MLS Listing,,Condo/Co-op,229 E Lake Shore Dr Unit 4W,Chicago,IL,60611,2500000,3,2.5,CHI - Near North Side,3600,,1919,213,694,7098,Active,,,http://www.redfin.com/IL/Chicago/229-E-Lake-Shore-Dr-60611/unit-4W/home/52797775,MRED,11022991,N,Y,41.9006181,-87.6205294
MLS Listing,,Condo/Co-op,1320 N State Pkwy Unit 8D,Chicago,IL,60610,785000,3,2.0,CHI - Near North Side,2700,,,214,291,5146,Active,,,http://www.redfin.com/IL/Chicago/1320-N-State-Pkwy-60610/unit-8D/home/176688968,MRED,11021574,N,Y,41.9064531,-87.6290074
MLS Listing,,Condo/Co-op,232 E Walton Pl Unit 9W,Chicago,IL,60611,1125000,4,4.0,CHI - Near North Side,3800,,1928,215,296,5117,Active,,,http://www.redfin.com/IL/Chicago/232-E-Walton-Pl-60611/unit-9W/home/108547470,MRED,11020704,N,Y,41.9002369,-87.6206819
MLS Listing,,Single Family Residential,15 W Burton Pl,Chicago,IL,60610,11988000,6,6.5,CHI - Near North Side,10000,3301,2008,217,1199,,Active,,,http://www.redfin.com/IL/Chicago/15-W-Burton-Pl-60610/home/26830892,MRED,11019290,N,Y,41.909351,-87.6296466
MLS Listing,,Condo/Co-op,1445 N State Pkwy #2001,Chicago,IL,60610,284900,2,2.0,CHI - Near North Side,1200,,1962,224,237,1682,Active,,,http://www.redfin.com/IL/Chicago/1445-N-State-Pkwy-60610/unit-2001/home/14126338,MRED,11012350,N,Y,41.9091114,-87.6282751
MLS Listing,,Condo/Co-op,1221 N Dearborn St Unit 1211N,Chicago,IL,60610,389000,2,2.0,The Towers,1666,,1973,224,233,1295,Active,,,http://www.redfin.com/IL/Chicago/1221-N-Dearborn-St-60610/unit-1211N/home/176320009,MRED,11012104,N,Y,41.9046835,-87.6296264
MLS Listing,,Single Family Residential,1443 N Astor St,Chicago,IL,60610,11888000,6,9.5,CHI - Near North Side,13915,4521,1891,224,854,,Active,,,http://www.redfin.com/IL/Chicago/1443-N-Astor-St-60610/home/14126321,MRED,11011420,N,Y,41.9090322,-87.6272947
MLS Listing,,Single Family Residential,1318 N Astor St,Chicago,IL,60610,4490000,6,6.0,CHI - Near North Side,7500,2874,1889,225,599,,Active,,,http://www.redfin.com/IL/Chicago/1318-N-Astor-St-60610/home/14124966,MRED,11010142,N,Y,41.9064171,-87.6277467
MLS Listing,,Condo/Co-op,1110 N Lake Shore Dr Unit 32N,Chicago,IL,60611,899999,3,2.5,CHI - Near North Side,2165,,1970,235,416,2940,Active,,,http://www.redfin.com/IL/Chicago/1110-N-Lake-Shore-Dr-60611/unit-32N/home/14123045,MRED,11000712,N,Y,41.902836,-87.625043
MLS Listing,,Condo/Co-op,1240 N Lake Shore Dr Unit 7A,Chicago,IL,60610,599747,3,2.5,CHI - Near North Side,2000,,1970,235,300,1734,Active,,,http://www.redfin.com/IL/Chicago/1240-N-Lake-Shore-Dr-60610/unit-7A/home/14124640,MRED,11000404,N,Y,41.905113,-87.62552
MLS Listing,,Single Family Residential,1520 N Dearborn Pkwy,Chicago,IL,60610,4200000,5,4.5,CHI - Near North Side,7623,3428,1898,238,551,,Active,,,http://www.redfin.com/IL/Chicago/1520-N-Dearborn-Pkwy-60610/home/14115117,MRED,10999507,N,Y,41.9101046,-87.6305758
MLS Listing,,Condo/Co-op,100 E Bellevue Pl Unit 15C,Chicago,IL,60611,479000,2,2.0,CHI - Near North Side,1400,,1971,239,342,1484,Active,,,http://www.redfin.com/IL/Chicago/100-E-Bellevue-Pl-60611/unit-15C/home/14122535,MRED,10997969,N,Y,41.9019284,-87.6256565
MLS Listing,,Condo/Co-op,1448 N Lake Shore Dr Unit 12-5C,Chicago,IL,60610,847000,3,2.5,CHI - Near North Side,2720,,1927,243,311,3946,Active,,,http://www.redfin.com/IL/Chicago/1448-N-Lake-Shore-Dr-60610/unit-12-5C/home/171958075,MRED,10995214,N,Y,41.9092734,-87.626852
MLS Listing,,Single Family Residential,1242 N Astor St,Chicago,IL,60610,2595000,6,5.0,CHI - Near North Side,5100,1781,1891,247,509,,Active,,,http://www.redfin.com/IL/Chicago/1242-N-Astor-St-60610/home/14124876,MRED,10992321,N,Y,41.905238,-87.6274115
MLS Listing,,Condo/Co-op,990 N Lake Shore Dr Unit 29DE,Chicago,IL,60611,1499000,3,4.5,CHI - Near North Side,3500,,1973,248,428,3079,Active,,,http://www.redfin.com/IL/Chicago/990-N-Lake-Shore-Dr-60611/unit-29DE/home/97822250,MRED,10991435,N,Y,41.9003001,-87.6201438
MLS Listing,,Condo/Co-op,1325 N State Pkwy Unit 6D,Chicago,IL,60610,265000,1,1.0,CHI - Near North Side,950,,1966,252,279,714,Active,,,http://www.redfin.com/IL/Chicago/1325-N-State-Pkwy-60610/unit-6D/home/14124497,MRED,10988677,N,Y,41.9064765,-87.6282768
MLS Listing,,Condo/Co-op,1448 N Lake Shore Dr Unit 1A,Chicago,IL,60610,449000,2,1.5,CHI - Near North Side,,,1927,254,,2549,Active,,,http://www.redfin.com/IL/Chicago/1448-N-Lake-Shore-Dr-60610/unit-1A/home/21972116,MRED,10986876,N,Y,41.9092734,-87.626852
MLS Listing,,Condo/Co-op,1 E Schiller St Unit 15D,Chicago,IL,60610,569000,3,2.0,CHI - Near North Side,2100,,1964,256,271,1512,Active,,,http://www.redfin.com/IL/Chicago/1-E-Schiller-St-60610/unit-15D/home/14124759,MRED,10984665,N,Y,41.907619,-87.6281771
MLS Listing,,Condo/Co-op,1445 N State Pkwy #2501,Chicago,IL,60610,285000,2,2.0,CHI - Near North Side,,,1966,259,,1775,Active,,,http://www.redfin.com/IL/Chicago/1445-N-State-Pkwy-60610/unit-2501/home/14126065,MRED,10983118,N,Y,41.9091114,-87.6282751
MLS Listing,,Condo/Co-op,70 E Scott St #708,Chicago,IL,60610,239900,1,1.0,CHI - Near North Side,,,1917,263,,478,Active,,,http://www.redfin.com/IL/Chicago/70-E-Scott-St-60610/unit-708/home/14124864,MRED,10978879,N,Y,41.9051023,-87.6260443
MLS Listing,,Condo/Co-op,990 N Lake Shore Dr Unit 15B,Chicago,IL,60611,420000,2,2.0,CHI - Near North Side,1430,,1972,266,294,1266,Active,,,http://www.redfin.com/IL/Chicago/990-N-Lake-Shore-Dr-60611/unit-15B/home/14120934,MRED,10976883,N,Y,41.9003001,-87.6201438
MLS Listing,,Condo/Co-op,1440 N State Pkwy Unit 4C,Chicago,IL,60610,550000,3,3.0,CHI - Near North Side,,,1975,268,,1740,Active,,,http://www.redfin.com/IL/Chicago/1440-N-State-Pkwy-60610/unit-4C/home/14114696,MRED,10975281,N,Y,41.9089778,-87.6293563
MLS Listing,,Condo/Co-op,33 E Bellevue Pl Unit 3W,Chicago,IL,60611,2299888,4,3.5,CHI - Near North Side,4000,,1910,274,575,2439,Active,,,http://www.redfin.com/IL/Chicago/33-E-Bellevue-Pl-60611/unit-3W/home/14122591,MRED,10970533,N,Y,41.9013329,-87.6268905
MLS Listing,,Condo/Co-op,21 W Goethe St Unit 11D,Chicago,IL,60610,155999,0,1.0,Hanover House,525,,1968,281,297,493,Active,,,http://www.redfin.com/IL/Chicago/21-W-Goethe-St-60610/unit-11D/home/14111553,MRED,10965093,N,Y,41.9054585,-87.6296264
MLS Listing,,Condo/Co-op,1530 N State Pkwy #3,Chicago,IL,60610,1995000,4,4.0,CHI - Near North Side,4325,,1928,284,461,6919,Active,,,http://www.redfin.com/IL/Chicago/1530-N-State-Pkwy-60610/unit-3/home/143795690,MRED,10962801,N,Y,41.9105834,-87.6291461
MLS Listing,,Condo/Co-op,1530 N State Pkwy #4,Chicago,IL,60610,895000,5,5.0,CHI - Near North Side,4350,,1928,284,206,6919,Active,,,http://www.redfin.com/IL/Chicago/1530-N-State-Pkwy-60610/unit-4/home/148355630,MRED,10962185,N,Y,41.9105834,-87.6291461
MLS Listing,,Condo/Co-op,1430 N Astor St Unit 4A,Chicago,IL,60610,549000,2,2.0,CHI - Near North Side,1550,,1974,291,354,1562,Active,,,http://www.redfin.com/IL/Chicago/1430-N-Astor-St-60610/unit-4A/home/14126400,MRED,10959484,N,Y,41.9085806,-87.6279494
MLS Listing,,Condo/Co-op,1325 N Astor St #11,Chicago,IL,60610,1700000,3,2.5,CHI - Near North Side,4300,,1929,308,395,4241,Active,,,http://www.redfin.com/IL/Chicago/1325-N-Astor-St-60610/unit-11/home/176622222,MRED,10951748,N,Y,41.9065926,-87.6272934
MLS Listing,,Condo/Co-op,100 E Bellevue Pl Unit 31C,Chicago,IL,60611,275000,1,1.0,CHI - Near North Side,,,1971,318,,846,Active,,,http://www.redfin.com/IL/Chicago/100-E-Bellevue-Pl-60611/unit-31C/home/14122312,MRED,10943930,N,Y,41.9019284,-87.6256565
MLS Listing,,Condo/Co-op,39 E Schiller St Unit 2W,Chicago,IL,60610,1250000,4,3.0,CHI - Near North Side,3000,,1980,319,417,1714,Active,,,http://www.redfin.com/IL/Chicago/39-E-Schiller-St-60610/unit-2W/home/145735172,MRED,10943503,N,Y,41.9076605,-87.6273118
MLS Listing,,Single Family Residential,1515 N State Pkwy,Chicago,IL,60610,9350000,6,6.0,CHI - Near North Side,9680,,1898,339,966,,Active,,,http://www.redfin.com/IL/Chicago/1515-N-State-Pkwy-60654/home/14125984,MRED,10902812,N,Y,41.909984,-87.6284496
MLS Listing,,Condo/Co-op,1500 N Lake Shore Dr Unit 3A,Chicago,IL,60610,2950000,3,4.0,CHI - Near North Side,4540,,1927,347,650,4894,Active,,,http://www.redfin.com/IL/Chicago/1500-N-Lake-Shore-Dr-60610/unit-3A/home/169131305,MRED,10922675,N,Y,41.9098168,-87.6269297
MLS Listing,,Single Family Residential,3 W Burton Pl,Chicago,IL,60610,18750000,6,10.5,CHI - Near North Side,20002,6599,,350,937,,Active,,,http://www.redfin.com/IL/Chicago/3-W-Burton-Pl-60610/home/173585552,MRED,10921475,N,Y,41.9093226,-87.6291635
MLS Listing,,Condo/Co-op,1445 N State Pkwy #806,Chicago,IL,60610,209000,1,1.0,CHI - Near North Side,,,1962,399,,748,Active,,,http://www.redfin.com/IL/Chicago/1445-N-State-Pkwy-60610/unit-806/home/14125241,MRED,10854472,N,Y,41.9091114,-87.6282751
MLS Listing,,Condo/Co-op,1448 N Lake Shore Dr Unit 1C,Chicago,IL,60610,395000,1,1.0,CHI - Near North Side,710,,1927,414,556,1573,Active,,,http://www.redfin.com/IL/Chicago/1448-N-Lake-Shore-Dr-60610/unit-1C/home/113535371,MRED,10837714,N,Y,41.9092734,-87.626852
MLS Listing,,Condo/Co-op,1366 N Dearborn Pkwy Unit 14A,Chicago,IL,60610,1295000,2,2.5,CHI - Near North Side,1950,,1926,436,664,2166,Active,,,http://www.redfin.com/IL/Chicago/1366-N-Dearborn-St-60610/unit-14A/home/14114491,MRED,10807315,N,Y,41.9077072,-87.6306493
MLS Listing,,Single Family Residential,1449 N Astor St,Chicago,IL,60610,7875000,6,8.0,CHI - Near North Side,10000,4190,1911,438,788,,Active,,,http://www.redfin.com/IL/Chicago/1449-N-Astor-St-60610/home/14126858,MRED,10804583,N,Y,41.9092258,-87.6272064
MLS Listing,,Single Family Residential,1433 N State Pkwy,Chicago,IL,60610,3995000,5,6.5,CHI - Near North Side,7679,3118,,448,520,,Active,,,http://www.redfin.com/IL/Chicago/1433-N-State-Pkwy-60610/unit-1/home/14125946,MRED,10793555,N,Y,41.9087476,-87.6284872
MLS Listing,,Condo/Co-op,1110 N Lake Shore Dr Unit 11S,Chicago,IL,60611,497500,3,2.5,CHI - Near North Side,2164,,1970,463,230,2543,Active,,,http://www.redfin.com/IL/Chicago/1110-N-Lake-Shore-Dr-60611/unit-11S/home/167117613,MRED,10775657,N,Y,41.902836,-87.625043
MLS Listing,,Condo/Co-op,1430 N Lake Shore Dr #13,Chicago,IL,60610,1895000,3,4.0,CHI - Near North Side,5000,,1928,479,379,8156,Active,,,http://www.redfin.com/IL/Chicago/1430-N-Lake-Shore-Dr-60610/unit-13/home/170588439,MRED,10756607,N,Y,41.9087249,-87.6264668
MLS Listing,,Condo/Co-op,1120 N Lake Shore Dr Unit 2B,Chicago,IL,60611,649000,3,2.5,CHI - Near North Side,2200,,1926,494,295,2176,Active,,,http://www.redfin.com/IL/Chicago/1120-N-Lake-Shore-Dr-60611/unit-2B/home/105521029,MRED,10739693,N,Y,41.9030623,-87.6250979
MLS Listing,,Condo/Co-op,1550 N Lake Shore Dr Unit 16F,Chicago,IL,60610,239900,1,1.0,CHI - Near North Side,800,,1960,505,300,722,Active,,,http://www.redfin.com/IL/Chicago/1550-N-Lake-Shore-Dr-60610/unit-16F/home/14125957,MRED,10727594,N,Y,41.9108985,-87.6267754
MLS Listing,,Condo/Co-op,21 W Goethe St Unit 7E,Chicago,IL,60610,219000,1,1.0,CHI - Near North Side,700,,1962,515,313,685,Active,,,http://www.redfin.com/IL/Chicago/21-W-Goethe-St-60610/unit-7E/home/14111558,MRED,10717992,N,Y,41.9054585,-87.6296264
MLS Listing,,Single Family Residential,1316 N Astor St,Chicago,IL,60610,4995000,6,7.5,CHI - Near North Side,10624,4138,1903,578,470,,Active,October-17-2021 01:30 PM,October-17-2021 03:30 PM,http://www.redfin.com/IL/Chicago/1316-N-Astor-St-60610/home/14124064,MRED,10668902,N,Y,41.9063692,-87.6277194
MLS Listing,,Condo/Co-op,232 E Walton Pl Unit 6E,Chicago,IL,60611,1000000,4,3.5,CHI - Near North Side,3800,,1928,599,263,2423,Active,,,http://www.redfin.com/IL/Chicago/232-E-Walton-St-60611/unit-6E/home/145016362,MRED,10646016,N,Y,41.9002338,-87.6206837
MLS Listing,,Condo/Co-op,1335 N Astor St Unit 12A,Chicago,IL,60610,300000,2,2.0,CHI - Near North Side,1600,,1951,603,188,2262,Active,,,http://www.redfin.com/IL/Chicago/1335-N-Astor-St-60610/unit-12A/home/170602422,MRED,10642659,N,Y,41.9069599,-87.6271575
MLS Listing,,Condo/Co-op,1540 N Lake Shore Dr Unit 10N,Chicago,IL,60610,1400000,3,3.0,CHI - Near North Side,3595,,1929,624,389,3761,Active,,,http://www.redfin.com/IL/Chicago/1540-N-Lake-Shore-Dr-60610/unit-10N/home/170462605,MRED,10623014,N,Y,41.9106233,-87.6265826
MLS Listing,,Condo/Co-op,1320 N State Pkwy Unit 12-13C,Chicago,IL,60610,1300000,4,4.0,CHI - Near North Side,3901,,1924,808,333,6360,Active,,,http://www.redfin.com/IL/Chicago/1320-N-State-Pkwy-60610/unit-12-13C/home/176688966,MRED,10467766,N,Y,41.9064531,-87.6290074
MLS Listing,,Condo/Co-op,70 E Cedar St #1402,Chicago,IL,60611,380000,2,2.0,CHI - Near North Side,1200,,1927,850,317,2130,Active,,,http://www.redfin.com/IL/Chicago/70-E-Cedar-St-60611/unit-1402/home/167107670,MRED,10421477,N,Y,41.9026645,-87.6255413
MLS Listing,,Condo/Co-op,1301 N Astor St #2,Chicago,IL,60610,1600000,2,2.5,CHI - Near North Side,3500,,1929,879,457,4071,Active,,,http://www.redfin.com/IL/Chicago/1301-N-Astor-St-60610/unit-2/home/21837327,MRED,10386622,N,Y,41.9060263,-87.6270839
MLS Listing,,Condo/Co-op,1235 N Astor St Unit 3N,Chicago,IL,60610,695000,4,2.5,CHI - Near North Side,3100,,1920,969,224,4340,Active,,,http://www.redfin.com/IL/Chicago/1235-N-Astor-St-60610/unit-3N/home/13054822,MRED,10276293,N,Y,41.9051649,-87.626858
